City,id,zip,lat,lon,cdd Jan,hdd Jan,cdd Feb,hdd Feb,cdd Mar,hdd Mar,cdd Apr,hdd Apr,cdd May,hdd May,cdd Jun,hdd Jun,cdd Jul,hdd Jul,cdd Aug,hdd Aug,cdd Sep,hdd Sep,cdd Oct,hdd Oct,cdd Nov,hdd Nov,cdd Dec,hdd Dec,zip,lat,lon,cdd Jan 2021,cdd Feb 2021,cdd Mar 2021,cdd Apr 2021,cdd May 2021,cdd Jun 2021,cdd Jul 2021,cdd Aug 2021,cdd Sep 2021,cdd Oct 2021,cdd Nov 2021,cdd Dec 2021,cdd Jan 2022,cdd Feb 2022,cdd Mar 2022,cdd Apr 2022,cdd May 2022,cdd Jun 2022,cdd Jul 2022,cdd Aug 2022,cdd Sep 2022,cdd Oct 2022,cdd Nov 2022,cdd Dec 2022,cdd Jan 2023,cdd Feb 2023,cdd Mar 2023,cdd Apr 2023,cdd May 2023,cdd Jun 2023,cdd Jul 2023,cdd Aug 2023,cdd Sep 2023,cdd Oct 2023,cdd Nov 2023,cdd Dec 2023,hdd Jan 2021,hdd Feb 2021,hdd Mar 2021,hdd Apr 2021,hdd May 2021,hdd Jun 2021,hdd Jul 2021,hdd Aug 2021,hdd Sep 2021,hdd Oct 2021,hdd Nov 2021,hdd Dec 2021,hdd Jan 2022,hdd Feb 2022,hdd Mar 2022,hdd Apr 2022,hdd May 2022,hdd Jun 2022,hdd Jul 2022,hdd Aug 2022,hdd Sep 2022,hdd Oct 2022,hdd Nov 2022,hdd Dec 2022,hdd Jan 2023,hdd Feb 2023,hdd Mar 2023,hdd Apr 2023,hdd May 2023,hdd Jun 2023,hdd Jul 2023,hdd Aug 2023,hdd Sep 2023,hdd Oct 2023,hdd Nov 2023,hdd Dec 2023
"ANCHORAGE, AK",0,99504,61.2,-149.75,0,1300,0,1222,0,1205,0,874,0,499,2,241,4,195,0,251,0,479,0,879,0,1327,0,1487,99504,61.2,-149.75,0,0,0,0,0,0,12,0,0,0,0,0,0,0,0,0,0,6,0,0,0,0,0,0,0,0,0,0,0,0,0,0,0,0,0,0,1307,1402,1396,880,515,244,182,222,509,831,1461,1445,1325,1026,996,785,415,157,197,265,429,859,1225,1549,1267,1237,1222,958,566,323,206,267,500,948,1294,1468
"BARROW, AK",1,99723,71.28,-156.78,0,2274,0,2267,0,2204,0,1892,0,1244,0,826,0,660,0,791,0,937,0,1362,0,1750,0,2139,99723,71.28,-156.78,0,0,0,0,0,0,0,0,0,0,0,0,0,0,0,0,0,0,0,0,0,0,0,0,0,0,0,0,0,0,0,0,0,0,0,0,2227,2369,2316,1781,1288,830,714,808,929,1274,1739,2208,2387,2271,2191,1880,1252,815,754,758,875,1251,1534,1861,2207,2160,2104,2014,1193,833,513,808,1006,1560,1977,2348
"BETHEL, AK",2,99559,60.81,-161.85,0,1742,0,1502,0,1450,0,1167,0,640,1,322,3,306,1,363,0,574,0,1028,0,1548,0,1588,99559,60.81,-161.85,0,0,0,0,0,0,2,4,0,0,0,0,0,0,0,0,0,4,7,0,0,0,0,0,0,0,0,0,0,0,0,0,0,0,0,0,1688,1529,1575,1106,574,372,314,359,612,1031,1916,1413,1849,1461,1354,977,616,231,304,377,527,971,1306,1632,1690,1517,1420,1418,731,362,301,352,582,1081,1422,1719
"BETTLES FIELD, AK",3,99726,67.24,-152.27,0,2164,0,2156,0,1862,0,1376,0,578,5,212,29,167,6,371,0,680,0,1288,0,1946,0,2228,99726,67.24,-152.27,0,0,0,0,0,13,14,18,0,0,0,0,0,0,0,0,0,1,20,0,0,0,0,0,0,0,0,0,0,2,52,0,0,0,0,0,2050,2324,2021,1328,586,197,169,412,725,1152,2090,2219,2356,2086,1703,1212,597,187,227,346,598,1285,1772,2209,2087,2059,1863,1589,551,251,105,355,718,1427,1977,2256
"COLD BAY, AK",4,99571,55.22,-162.78,0,1132,0,851,0,1003,0,875,0,730,0,502,0,415,0,393,0,484,0,737,0,933,0,959,99571,55.22,-162.78,0,0,0,0,0,0,0,0,0,0,0,0,0,0,0,0,0,0,0,0,0,0,0,0,0,0,0,0,0,0,0,0,0,0,0,0,1094,793,983,791,676,486,397,357,493,755,1110,914,1140,850,1067,896,735,506,446,420,447,683,785,919,1161,909,958,937,779,514,401,402,511,773,904,1045
"COPPER CENTER, AK",5,99573,61.68,-145.14,0,1951,0,1632,0,1531,0,1073,0,626,1,283,6,185,0,350,0,642,0,1143,0,1784,0,2126,99573,61.68,-145.14,0,0,0,0,0,0,2,1,0,0,0,0,0,0,0,0,0,3,0,0,0,0,0,0,0,0,0,0,0,0,16,0,0,0,0,0,1943,1938,1699,1046,605,280,188,335,679,1113,1940,2065,2034,1357,1370,1055,644,273,239,352,596,1128,1636,2241,1875,1600,1523,1118,629,295,129,363,651,1189,1777,2071
"CORDOVA, AK",6,99574,60.79,-145.61,0,1014,0,1004,0,1050,0,803,0,601,0,358,0,298,0,326,0,485,0,744,0,1071,0,1220,99574,60.79,-145.61,0,0,0,0,0,0,0,0,0,0,0,0,0,0,0,0,0,0,0,0,0,0,0,0,0,0,0,0,0,0,0,0,0,0,0,0,993,1132,1186,821,612,357,322,327,489,754,1198,1339,1093,864,887,787,564,309,289,307,463,689,973,1142,957,1017,1078,802,626,409,284,344,504,788,1042,1178
"DELTA JUNCTION, AK",7,99737,63.7,-144.89,0,1805,0,1761,0,1602,0,1144,0,530,10,165,40,117,6,324,0,652,0,1158,0,1789,0,1992,99737,63.7,-144.89,0,0,0,0,0,13,26,18,0,0,0,0,0,0,0,0,0,12,21,1,0,0,0,0,0,0,0,0,0,6,73,0,0,0,0,0,1635,1892,1737,1067,532,152,99,347,722,1128,1973,1859,2001,1672,1482,1079,573,148,198,236,555,1116,1575,2005,1778,1719,1587,1286,485,195,54,390,679,1230,1819,2113
"FAIRBANKS, AK",8,99709,64.9,-148.16,0,2093,0,1895,0,1670,0,1155,1,428,23,99,66,60,14,234,0,568,0,1147,0,1823,0,2094,99709,64.9,-148.16,0,0,0,0,0,35,63,41,0,0,0,0,0,0,0,0,0,15,36,1,0,0,0,0,0,0,0,0,3,20,100,0,0,0,0,0,2058,2071,1798,1117,386,77,48,263,604,1044,1922,1948,2208,1805,1580,1076,489,77,107,169,492,1119,1669,2129,2013,1808,1632,1273,409,144,24,271,608,1277,1878,2205
"HOMER, AK",9,99603,59.4,-151.32,0,1107,0,1002,0,1062,0,835,0,589,0,359,0,276,0,320,0,489,0,783,0,1128,0,1220,99603,59.4,-151.32,0,0,0,0,0,0,0,0,0,0,0,0,0,0,0,0,0,0,0,0,0,0,0,0,0,0,0,0,0,0,0,0,0,0,0,0,1030,1072,1194,815,596,386,281,320,529,775,1317,1235,1268,876,894,790,559,319,281,292,426,736,1000,1214,1023,1058,1097,899,612,372,267,347,511,839,1066,1210
"JUNEAU, AK",10,99801,58.58,-134.77,0,983,0,975,0,968,0,742,0,490,2,259,3,187,2,246,0,417,0,667,0,936,0,1225,99801,58.58,-134.77,0,0,0,0,0,4,1,3,0,0,0,0,0,0,0,0,0,0,2,3,0,0,0,0,0,0,0,0,0,2,6,0,0,0,0,0,955,1089,988,734,526,248,179,239,423,726,893,1338,1058,855,868,763,487,239,248,211,381,580,968,1220,935,980,1048,730,458,291,133,287,446,696,947,1117
"KENAI, AK",11,99611,60.66,-150.9,0,1347,0,1265,0,1309,0,951,0,587,0,367,0,297,0,332,0,527,0,902,0,1372,0,1572,99611,60.66,-150.9,0,0,0,0,0,0,0,0,0,0,0,0,0,0,0,0,0,0,0,0,0,0,0,0,0,0,0,0,0,0,0,0,0,0,0,0,1324,1417,1522,937,605,373,284,343,578,856,1520,1578,1432,1085,1078,896,543,323,280,314,463,899,1311,1641,1284,1293,1328,1020,612,404,327,339,540,951,1286,1497
"KETCHIKAN, AK",12,99901,55.61,-131.58,0,838,0,820,0,826,0,661,0,447,9,243,11,151,4,161,0,325,0,561,0,773,0,1050,99901,55.61,-131.58,0,0,0,0,0,27,7,0,0,0,0,0,0,0,0,0,0,0,12,11,0,0,0,0,0,0,0,0,0,1,14,0,0,0,0,0,837,896,854,635,483,235,148,180,362,619,709,1190,886,738,765,684,508,252,199,102,260,469,831,1054,790,826,860,665,349,243,107,202,354,594,778,905
"KING SALMON, AK",13,99613,58.75,-156.54,0,1380,0,1145,0,1274,0,975,0,601,5,334,0,275,0,337,0,552,0,920,0,1400,0,1417,99613,58.75,-156.54,0,0,0,0,0,0,0,0,0,0,0,0,0,0,0,0,0,14,0,0,0,0,0,0,0,0,0,0,0,0,0,0,0,0,0,0,1312,1228,1389,913,617,399,294,376,634,918,1813,1403,1556,961,1134,887,568,276,310,319,506,862,1139,1368,1273,1247,1300,1125,619,327,221,315,517,980,1249,1480
"KODIAK, AK",14,99615,57.79,-152.4,0,980,0,874,0,952,0,803,0,606,0,378,3,285,0,263,0,430,0,680,0,990,0,1019,99615,57.79,-152.4,0,0,0,0,0,0,7,0,0,0,0,0,0,0,0,0,0,0,3,1,0,0,0,0,0,0,0,0,0,0,0,0,0,0,0,0,941,906,993,774,624,405,273,261,443,645,1163,1025,1052,775,875,788,531,287,273,226,382,632,878,970,947,941,987,848,663,443,308,301,464,763,929,1061
"KOTZEBUE, AK",15,99752,67.24,-161.19,0,2082,0,2051,0,1901,0,1574,0,1020,0,551,2,322,4,446,0,666,0,1218,0,1770,0,1934,99752,67.24,-161.19,0,0,0,0,0,0,0,11,0,0,0,0,0,0,0,0,0,0,0,0,0,0,0,0,0,0,0,0,0,0,7,0,0,0,0,0,1961,2188,2023,1502,950,485,333,467,721,1188,2070,1990,2386,2012,1817,1381,1030,579,413,479,591,1175,1542,1792,1898,1953,1864,1840,1080,590,221,392,685,1290,1697,2021
"MC GRATH, AK",16,99627,63.61,-154.78,0,1912,0,1760,0,1628,0,1152,0,494,15,172,22,158,10,309,0,591,0,1145,0,1830,0,2037,99627,63.61,-154.78,0,0,0,0,0,43,25,30,0,0,0,0,0,0,0,0,0,0,24,0,0,0,0,0,0,0,0,0,0,1,17,0,0,0,0,0,1971,1891,1742,1084,494,105,144,297,652,1125,2035,1768,1871,1651,1537,1001,440,162,190,321,514,1083,1684,2203,1894,1737,1605,1371,548,248,140,310,606,1226,1770,2141
"NOME, AK",17,99762,64.71,-164.62,0,1829,0,1683,0,1650,0,1355,0,796,0,477,0,399,1,453,0,624,0,1069,0,1510,0,1677,99762,64.71,-164.62,0,0,0,0,0,0,0,2,0,0,0,0,0,0,0,0,0,0,0,0,0,0,0,0,0,0,0,0,0,0,0,0,0,0,0,0,1714,1760,1802,1282,681,490,428,477,671,1074,1800,1739,1975,1568,1485,1108,794,414,401,443,546,1011,1293,1544,1798,1722,1663,1676,914,528,369,439,655,1121,1437,1748
"NORTHWAY, AK",18,99764,63.0,-141.69,0,2273,0,1959,0,1747,0,1202,0,564,5,183,29,111,4,307,0,659,0,1301,0,2051,0,2357,99764,63.0,-141.69,0,0,0,0,0,2,10,12,0,0,0,0,0,0,0,0,0,6,6,0,0,0,0,0,0,0,0,0,0,6,72,0,0,0,0,0,2232,2166,1872,1160,530,194,121,312,719,1311,2196,2237,2440,1820,1652,1216,598,165,169,290,580,1242,1921,2410,2147,1890,1717,1231,564,189,44,319,678,1351,2037,2423
"SAINT PAUL ISLAND, AK",19,99660,57.18,-170.26,0,1163,0,964,0,1103,0,955,0,834,0,631,0,523,0,495,0,574,0,804,0,963,0,1019,99660,57.18,-170.26,0,0,0,0,0,0,0,0,0,0,0,0,0,0,0,0,0,0,0,0,0,0,0,0,0,0,0,0,0,0,0,0,0,0,0,0,1022,778,996,797,714,604,512,453,563,797,1075,967,1305,1077,1225,1028,892,639,555,522,566,792,858,971,1161,1036,1087,1040,897,650,501,510,594,824,957,1120
"SITKA, AK",20,99835,56.73,-135.0,0,791,0,784,0,824,0,657,1,492,1,287,0,211,0,200,0,311,0,535,0,748,0,944,99835,56.73,-135.0,0,0,0,0,0,2,1,0,0,0,0,0,0,0,0,0,0,0,0,0,0,0,0,0,0,0,0,0,2,0,0,0,0,0,0,0,799,857,866,663,521,278,215,192,317,589,742,1009,866,695,738,658,505,268,248,170,260,434,736,936,707,799,867,651,450,316,171,239,355,582,767,888
"TALKEETNA, AK",21,99676,62.45,-149.79,0,1390,0,1318,0,1266,0,928,0,517,2,213,7,170,1,266,0,535,0,964,0,1450,0,1621,99676,62.45,-149.79,0,0,0,0,0,0,14,2,0,0,0,0,0,0,0,0,0,5,2,0,0,0,0,0,0,0,0,0,0,0,6,0,0,0,0,0,1390,1476,1501,925,492,191,155,235,548,927,1603,1622,1439,1107,1037,859,488,148,211,270,499,929,1325,1634,1340,1372,1259,999,570,301,144,293,558,1037,1422,1607
"UNALAKLEET, AK",22,99684,64.09,-160.36,0,1818,0,1677,0,1542,0,1265,0,725,1,383,2,298,5,400,0,602,0,1106,0,1656,0,1704,99684,64.09,-160.36,0,0,0,0,0,0,5,16,0,0,0,0,0,0,0,0,0,2,0,0,0,0,0,0,0,0,0,0,0,0,1,0,0,0,0,0,1732,1766,1662,1201,644,408,310,411,651,1085,2019,1722,1979,1635,1447,1035,772,331,303,426,514,1040,1381,1570,1744,1629,1518,1560,759,411,281,364,641,1193,1567,1819
"VALDEZ, AK",23,99686,61.15,-146.81,0,904,0,850,0,841,0,599,6,288,19,104,15,107,3,189,0,374,0,630,0,1008,0,1132,99686,61.15,-146.81,0,0,0,0,0,3,30,7,0,0,0,0,0,0,0,0,19,47,6,1,0,0,0,0,0,0,0,0,0,7,9,0,0,0,0,0,907,1030,1032,605,298,86,84,92,334,518,1082,1029,938,654,632,510,217,58,132,129,254,546,846,1126,867,865,858,683,349,169,106,347,533,826,1095,1241
"YAKUTAT, AK",24,99689,59.51,-139.71,0,1020,0,982,0,1033,0,815,0,614,0,377,0,296,0,315,0,457,0,696,0,981,0,1191,99689,59.51,-139.71,0,0,0,0,0,0,0,0,0,0,0,0,0,0,0,0,0,0,0,0,0,0,0,0,0,0,0,0,0,0,0,0,0,0,0,0,988,1090,1086,830,639,402,317,313,460,733,1025,1289,1108,885,898,822,615,326,296,274,411,616,940,1165,965,970,1114,794,587,403,276,358,499,740,979,1120
"BIRMINGHAM, AL",25,35205,33.49,-86.81,7,573,15,412,29,240,54,111,249,14,424,0,528,0,475,0,283,7,63,90,13,351,15,452,35205,33.49,-86.81,0,16,32,53,184,381,481,493,297,155,0,32,11,3,18,66,330,485,558,470,281,16,38,12,9,25,37,44,232,407,546,461,271,19,0,0,592,534,207,136,19,0,0,0,13,65,379,262,685,421,258,114,0,0,0,0,8,126,324,496,441,282,255,83,22,0,0,0,0,78,351,597
"HUNTSVILLE, AL",26,35816,34.74,-86.63,4,658,8,514,13,306,36,170,201,28,394,0,506,0,443,0,239,6,45,124,7,422,3,537,35816,34.74,-86.63,0,6,9,30,140,354,460,438,238,115,0,4,4,0,11,52,256,453,567,460,250,10,20,6,8,18,18,26,206,374,492,431,228,9,0,0,682,656,261,183,46,0,0,0,8,94,482,338,804,544,340,175,5,0,0,0,11,161,372,598,489,343,318,153,33,0,0,0,0,118,411,674
"MOBILE, AL",27,36604,30.68,-88.07,20,404,51,298,86,136,112,51,317,0,506,0,554,0,519,0,378,0,149,31,27,200,38,287,36604,30.68,-88.07,6,19,76,64,215,435,493,514,340,212,1,71,14,29,41,135,403,577,556,526,416,134,79,44,39,105,141,136,332,507,612,518,377,100,0,0,440,409,134,89,0,0,0,0,0,36,251,157,528,330,153,44,0,0,0,0,0,48,173,318,243,155,122,21,0,0,0,0,0,8,177,387
"MONTGOMERY, AL",28,36107,32.38,-86.28,11,468,41,301,50,168,81,63,277,5,481,0,562,0,522,0,346,0,93,58,11,280,26,371,36107,32.38,-86.28,5,18,48,78,233,448,514,541,353,188,2,54,12,27,18,75,343,555,583,522,338,33,30,23,17,78,83,89,256,441,590,503,346,58,0,0,482,397,141,84,4,0,0,0,0,44,320,215,575,311,186,73,0,0,0,0,0,93,258,403,346,194,177,33,10,0,0,0,0,37,261,494
"MUSCLE SHOALS, AL",29,35661,34.74,-87.64,2,620,15,499,25,273,63,137,221,22,431,0,558,0,491,0,281,3,64,113,8,402,10,523,35661,34.74,-87.64,0,8,37,49,169,412,525,556,308,163,2,16,4,13,15,107,286,494,632,480,291,16,22,13,2,23,22,32,207,386,517,436,243,13,0,0,634,637,208,143,23,0,0,0,0,61,429,302,749,537,309,117,9,0,0,0,8,162,374,597,478,323,302,150,34,0,0,0,0,117,402,669
"TUSCALOOSA, AL",30,35404,33.22,-87.48,8,542,21,404,36,227,62,96,259,8,450,0,556,0,510,0,329,1,81,68,11,327,18,416,35404,33.22,-87.48,4,19,42,59,203,410,501,516,330,168,0,39,13,7,15,70,343,550,642,498,315,24,32,16,7,36,50,58,232,390,526,516,343,50,0,0,579,528,195,115,4,0,0,0,0,58,379,255,624,411,250,99,0,0,0,0,2,104,315,469,422,273,237,73,20,0,0,0,0,42,286,525
"EL DORADO, AR",31,71730,33.21,-92.66,6,583,9,532,29,266,55,128,237,7,451,0,569,0,532,0,305,2,85,70,9,376,28,457,71730,33.21,-92.66,0,3,28,42,177,432,497,592,305,162,7,64,8,6,21,87,293,484,671,498,300,54,21,20,9,18,37,35,241,436,539,507,311,40,0,0,613,692,239,146,17,0,0,0,0,53,397,255,655,553,325,117,0,0,0,0,5,102,399,535,480,352,233,121,4,0,0,0,0,55,332,581
"FAYETTEVILLE, AR",32,72703,36.12,-94.04,0,814,0,726,4,445,29,246,143,83,344,1,495,0,424,0,214,12,34,179,6,519,7,660,72703,36.12,-94.04,0,0,0,19,72,323,382,437,278,67,0,20,0,0,1,48,209,385,634,435,209,36,17,0,0,0,10,21,148,323,468,401,155,0,0,0,828,946,396,281,109,4,0,0,14,154,487,421,896,726,473,217,89,0,0,0,23,199,542,724,719,505,466,241,52,0,0,0,0,183,527,834
"FORT SMITH, AR",33,72901,35.37,-94.42,0,708,0,628,9,333,39,151,210,22,456,0,605,0,563,0,354,0,81,93,8,412,4,577,72901,35.37,-94.42,0,0,14,20,129,428,524,583,406,127,0,11,0,0,1,58,247,468,698,590,381,88,23,0,0,0,13,40,255,471,593,516,276,27,0,0,712,821,267,186,33,0,0,0,0,82,399,334,808,638,382,136,13,0,0,0,0,106,408,658,604,424,351,132,20,0,0,0,0,90,430,740
"HARRISON, AR",34,72601,36.24,-93.11,5,501,14,462,71,158,206,43,419,1,678,0,841,0,684,0,438,0,185,77,43,344,23,505,72601,36.24,-93.11,0,2,81,197,332,673,777,834,624,300,35,63,0,15,80,192,454,706,917,818,546,254,95,7,15,26,53,228,472,656,830,400,144,0,0,0,499,684,80,56,3,0,0,0,0,13,193,184,606,464,182,49,0,0,0,0,0,46,316,501,397,237,211,23,0,0,0,0,0,172,522,829
"LITTLE ROCK, AR",35,72207,34.77,-92.35,2,629,2,577,14,295,52,137,238,15,457,0,585,0,541,0,343,0,96,70,5,404,8,527,72207,34.77,-92.35,0,0,7,29,146,416,514,549,348,141,0,21,0,0,15,79,274,471,657,539,378,105,16,3,7,7,20,49,293,483,584,536,303,43,0,0,682,805,281,183,34,0,0,0,0,66,439,324,707,561,314,130,2,0,0,0,1,89,403,596,497,364,290,97,9,0,0,0,0,55,370,662
"TEXARKANA, AR",36,71854,33.45,-94.01,8,504,13,465,39,202,89,81,304,5,542,0,685,0,583,0,384,0,145,43,15,300,39,404,71854,33.45,-94.01,0,3,39,77,199,505,581,609,423,231,13,82,0,4,17,107,371,571,801,596,399,142,31,34,25,33,60,84,343,551,673,544,331,61,0,0,563,643,183,117,16,0,0,0,0,32,292,200,577,475,249,65,0,0,0,0,0,66,302,453,373,278,174,60,0,0,0,0,0,31,307,560
"DOUGLAS, AZ",37,85607,31.54,-109.46,18,149,47,98,180,31,502,2,725,0,974,0,944,0,664,0,587,0,285,23,120,138,30,272,85607,31.54,-109.46,26,72,187,522,722,1036,824,804,727,407,292,67,11,36,214,516,759,1003,936,806,775,417,68,23,16,32,139,468,693,883,1072,383,260,30,0,0,132,46,33,0,0,0,0,0,0,0,0,86,112,112,26,0,0,0,0,0,0,0,43,142,202,136,33,5,0,0,0,0,0,70,370,588
"FLAGSTAFF, AZ",38,86004,35.29,-111.32,0,660,1,537,1,431,35,142,197,10,473,1,621,3,346,9,248,73,34,257,1,548,0,715,86004,35.29,-111.32,0,1,0,34,198,582,658,528,357,41,3,0,0,2,4,40,224,483,511,497,386,62,0,0,0,0,0,31,170,355,693,13,0,0,0,0,703,464,440,149,6,0,0,0,1,115,284,507,662,554,421,112,12,3,10,0,0,108,506,561,614,592,433,165,11,0,0,26,217,549,854,1077
"PHOENIX, AZ",39,85033,33.49,-112.21,1,270,7,166,75,87,335,6,582,0,847,0,1016,0,857,0,722,0,338,1,63,85,5,266,85033,33.49,-112.21,4,14,82,358,571,921,897,861,734,313,164,14,0,8,123,345,599,881,977,888,790,392,16,0,0,0,20,302,575,740,1174,823,642,308,9,0,265,120,99,0,0,0,0,0,0,2,2,186,210,163,54,2,0,0,0,0,0,0,150,287,335,214,109,16,0,0,0,0,0,0,102,324
"TUCSON, AZ",40,85719,32.24,-110.95,0,351,2,268,31,162,210,16,421,0,690,0,776,0,642,0,541,0,209,12,29,135,3,323,85719,32.24,-110.95,0,6,46,222,418,752,657,649,547,218,83,8,0,0,43,220,455,719,761,651,595,225,3,0,1,0,4,188,389,599,909,625,480,183,0,0,326,195,172,6,0,0,0,0,0,20,19,240,321,291,135,10,0,0,0,0,0,17,206,332,407,319,178,31,0,0,0,0,0,0,181,398
"WINSLOW, AZ",41,86047,35.1,-110.64,0,912,0,734,1,597,14,260,65,54,324,1,550,0,381,0,193,8,4,285,0,635,0,845,86047,35.1,-110.64,0,0,0,27,63,401,524,419,229,2,0,0,0,0,2,14,91,394,553,388,240,9,0,0,0,0,0,0,41,176,574,336,109,0,0,0,970,661,618,234,48,0,0,0,19,299,516,766,886,750,563,231,56,0,0,0,0,278,741,818,881,790,611,315,59,2,0,0,6,277,648,951
"YUMA, AZ",42,85364,32.68,-114.66,3,217,13,147,75,72,295,6,477,0,740,0,977,0,905,0,751,0,377,0,85,51,7,215,85364,32.68,-114.66,9,12,45,312,485,828,969,904,768,314,191,22,1,27,140,298,505,801,942,920,786,434,22,0,0,0,41,276,441,590,1021,891,698,382,43,0,212,86,86,1,0,0,0,0,0,0,0,181,174,142,42,2,0,0,0,0,0,0,106,240,264,214,87,15,0,0,0,0,0,0,46,225
"BAKERSFIELD, CA",43,93304,35.33,-119.02,0,437,1,339,17,248,84,77,257,24,458,0,727,0,637,0,453,0,145,38,0,290,0,520,93304,35.33,-119.02,0,0,7,104,298,568,789,669,467,102,0,0,0,2,43,60,243,502,685,709,533,240,0,0,0,0,0,89,230,303,708,534,359,92,0,0,412,291,236,35,8,1,0,0,0,69,224,484,455,305,160,64,30,0,0,0,0,27,346,526,443,422,348,132,33,0,0,0,0,18,300,549
"BLYTHE, CA",44,92225,33.75,-114.51,8,256,28,159,219,53,449,1,637,0,775,0,1031,0,983,0,782,0,403,2,56,104,10,303,92225,33.75,-114.51,8,2,43,374,512,887,1023,1194,934,483,147,29,14,83,453,309,549,818,997,903,776,444,13,0,2,0,161,663,850,621,1073,852,636,282,7,0,296,134,102,1,0,0,0,0,0,3,15,222,182,86,0,3,0,0,0,0,0,2,178,339,289,256,56,0,0,0,0,0,0,0,119,347
"EUREKA, CA",45,95501,40.8,-124.15,0,535,0,560,0,607,0,535,0,429,0,270,6,221,0,209,0,245,0,358,0,458,0,570,95501,40.8,-124.15,0,0,0,0,0,0,1,0,1,0,0,0,0,0,0,0,0,0,16,0,0,0,0,0,0,0,0,0,0,0,0,0,0,0,0,0,531,561,634,551,451,277,274,258,283,362,388,594,554,518,546,533,429,239,198,181,230,391,567,591,520,600,641,520,407,295,191,188,223,322,420,525
"FRESNO, CA",46,93702,36.74,-119.75,0,446,0,350,15,261,75,77,244,24,448,0,694,0,598,0,419,0,120,47,0,322,0,554,93702,36.74,-119.75,0,0,6,76,272,535,747,638,446,81,1,0,0,0,38,55,240,499,660,684,520,230,0,0,0,0,0,93,219,309,676,471,292,49,0,0,436,294,264,38,7,0,0,0,0,66,226,512,448,312,164,68,30,0,0,0,0,31,378,541,454,443,354,124,35,0,0,0,0,43,361,609
"IMPERIAL, CA",47,91932,32.57,-117.11,0,271,4,198,59,95,264,13,443,0,695,0,974,0,880,0,696,0,321,2,56,95,6,252,91932,32.57,-117.11,0,6,32,301,457,796,950,902,727,258,134,8,1,7,104,253,467,737,922,954,745,406,19,10,0,0,40,239,405,553,1050,783,616,300,15,0,259,135,109,4,0,0,0,0,0,3,16,236,254,196,54,4,0,0,0,0,0,2,182,205,299,262,121,30,0,0,0,0,0,0,88,316
"LOS ANGELES, CA",48,90057,34.06,-118.27,7,237,8,210,5,231,24,140,5,87,40,19,118,2,180,0,196,0,81,19,17,110,1,259,90057,34.06,-118.27,15,0,3,17,4,34,115,142,104,65,51,0,5,24,13,47,11,84,128,219,324,117,1,4,0,0,0,8,0,2,112,179,161,61,0,0,241,196,265,137,90,18,0,0,1,53,88,297,171,157,137,93,55,0,0,0,0,2,142,252,299,277,290,189,117,39,7,0,0,1,101,228
"MOUNT SHASTA, CA",49,96067,41.31,-122.32,0,493,5,418,7,349,56,132,271,39,460,0,708,0,507,5,324,53,107,196,0,488,0,704,96067,41.31,-122.32,1,0,2,49,325,548,719,703,448,69,0,0,0,15,20,39,229,433,697,792,523,253,0,0,0,0,0,80,260,399,707,25,0,0,0,0,525,462,350,68,6,0,0,0,0,90,278,560,458,296,183,147,56,0,0,0,0,52,438,616,497,497,514,180,56,0,0,14,160,447,747,936
"PASO ROBLES, CA",50,93446,35.61,-120.76,1,459,0,434,1,382,11,198,69,84,219,25,394,0,317,0,232,4,49,101,1,343,1,517,93446,35.61,-120.76,0,0,0,9,76,248,361,314,232,38,3,3,4,0,3,15,77,345,429,363,312,97,0,0,0,0,0,9,54,63,393,274,151,11,0,0,462,358,406,174,53,24,0,0,3,123,189,505,423,421,281,179,55,2,0,0,9,95,473,498,493,523,460,240,143,48,0,0,0,86,366,548
"RED BLUFF, CA",51,96080,40.13,-122.43,1,470,1,379,7,324,45,142,230,47,439,0,650,0,542,0,368,1,97,68,0,356,0,583,96080,40.13,-122.43,4,0,0,48,283,508,655,555,370,41,0,0,0,4,12,29,197,456,679,609,431,192,0,0,0,0,9,58,211,353,615,461,302,57,0,0,469,347,335,93,6,0,0,0,1,125,278,578,449,300,198,136,62,0,0,0,1,32,430,593,491,491,438,198,73,1,0,0,0,47,361,577
"REDDING, CA",52,96002,40.52,-122.32,0,489,8,388,7,359,42,155,228,50,438,0,663,0,549,0,346,1,89,83,0,382,0,590,96002,40.52,-122.32,1,10,2,30,274,526,702,562,354,36,0,0,0,14,20,34,188,411,629,651,428,203,0,0,0,0,0,63,223,377,657,433,257,28,0,0,521,358,360,95,9,0,0,0,2,138,288,555,454,302,193,162,69,0,0,0,1,30,448,611,493,504,524,209,73,0,0,0,0,80,410,604
"SACRAMENTO, CA",53,95842,38.68,-121.34,0,488,0,397,3,332,28,148,120,53,244,4,379,0,354,0,273,0,60,71,0,362,0,585,95842,38.68,-121.34,0,0,2,27,152,278,389,339,266,30,0,0,0,0,7,16,133,323,358,416,348,114,0,0,0,0,0,42,76,131,391,306,206,35,0,0,483,341,341,107,17,8,0,0,0,115,304,583,506,372,227,147,53,1,0,0,0,52,433,583,474,479,428,190,89,3,0,0,0,47,349,589
"SAN DIEGO, CA",54,92105,32.73,-117.08,3,245,3,217,4,205,16,104,7,62,54,7,186,0,264,0,247,0,93,10,15,107,0,256,92105,32.73,-117.08,9,0,7,21,16,96,248,266,222,84,45,0,0,9,5,21,4,50,148,292,312,107,1,0,0,0,0,6,0,17,161,235,206,87,0,0,216,165,195,61,20,0,0,0,0,26,52,282,239,215,175,100,85,11,0,0,0,5,179,263,280,271,245,151,82,9,0,0,0,0,91,224
"SAN FRANCISCO, CA",55,94108,37.79,-122.41,0,363,0,318,2,331,4,242,4,166,32,62,17,51,30,22,45,28,10,120,0,273,0,447,94108,37.79,-122.41,0,0,3,5,3,55,21,32,27,21,0,0,0,0,2,8,7,42,11,58,108,10,0,0,0,0,0,0,3,0,18,0,0,0,0,0,358,267,307,234,156,34,44,23,36,109,189,430,392,289,289,233,164,64,57,4,16,130,327,444,340,397,396,258,178,89,52,39,31,120,302,466
"STOCKTON, CA",56,95207,38.0,-121.32,0,466,0,384,2,331,21,151,117,50,288,4,473,0,388,0,288,0,65,78,0,367,1,570,95207,38.0,-121.32,0,0,0,10,107,275,413,335,228,26,0,3,0,0,6,20,152,413,541,467,392,131,0,0,0,0,0,33,93,176,466,363,243,39,0,0,438,311,385,152,22,11,0,0,1,138,319,532,488,377,206,112,47,0,0,0,0,50,427,570,471,465,402,188,80,0,0,0,0,47,354,608
"AKRON, CO",57,80720,40.16,-103.21,0,1155,0,1071,0,887,6,552,25,255,174,36,354,3,292,0,121,66,6,393,0,791,0,1056,80720,40.16,-103.21,0,0,0,6,12,194,342,325,174,2,0,0,0,0,0,4,48,261,475,321,167,16,0,0,0,0,0,8,15,67,246,230,22,0,0,0,1037,1167,795,578,295,21,0,0,55,353,611,855,1116,1042,857,542,283,30,0,0,69,394,920,1195,1313,1004,1008,537,188,58,9,0,74,431,843,1119
"ALAMOSA, CO",58,81101,37.46,-105.87,0,1404,0,1170,0,977,0,685,0,370,19,127,93,7,21,54,2,219,0,650,0,1038,0,1323,81101,37.46,-105.87,0,0,0,0,0,35,94,26,0,0,0,0,0,0,0,0,0,14,75,36,6,0,0,0,0,0,0,0,0,7,111,0,0,0,0,0,1422,1098,948,669,392,86,2,30,192,595,891,1211,1445,1240,995,648,352,95,13,44,156,669,1127,1277,1346,1171,989,737,367,200,7,87,309,685,1095,1481
"COLORADO SPRINGS, CO",59,80910,38.81,-104.77,0,1010,0,978,0,779,2,494,15,230,134,56,254,2,196,0,85,83,0,412,0,754,0,974,80910,38.81,-104.77,0,0,0,2,1,181,240,287,144,0,0,0,0,0,0,3,44,161,283,216,112,0,0,0,0,0,0,0,1,61,239,86,0,0,0,0,1027,1080,770,540,274,36,0,0,49,363,563,757,960,1005,730,397,217,44,1,0,48,382,846,1056,1042,849,836,544,198,88,4,0,151,490,854,1108
"DENVER, CO",60,80203,39.73,-104.98,0,1077,0,1015,0,819,4,522,12,241,160,42,345,1,286,0,121,72,2,383,0,753,0,1008,80203,39.73,-104.98,0,0,0,0,9,221,367,329,179,5,0,0,0,0,0,5,25,201,385,352,177,0,0,0,0,0,0,6,3,57,282,176,7,0,0,0,954,1105,786,557,280,19,0,0,57,344,555,822,1054,999,781,494,272,30,0,0,52,339,871,1098,1224,942,891,514,172,76,2,0,107,465,833,1103
"EAGLE, CO",61,81631,39.65,-106.82,0,1325,0,1123,0,960,0,649,0,343,57,92,210,2,75,17,16,163,1,583,0,950,0,1279,81631,39.65,-106.82,0,0,0,0,0,68,220,64,9,0,0,0,0,0,0,0,0,84,236,132,39,3,0,0,0,0,0,0,0,19,173,30,0,0,0,0,1301,1025,882,599,360,40,2,30,127,579,796,1171,1435,1177,952,646,361,66,0,6,124,566,1065,1306,1239,1168,1047,701,308,170,3,16,238,604,990,1361
"GRAND JUNCTION, CO",62,81501,39.08,-108.55,0,1099,0,899,0,711,1,400,65,103,284,3,529,0,374,3,135,22,0,373,0,758,0,1061,81501,39.08,-108.55,0,0,0,1,70,367,534,375,156,0,0,0,0,0,0,2,67,278,481,440,201,0,0,0,0,0,0,0,59,207,571,306,48,0,0,0,1137,843,651,365,104,0,0,9,26,403,653,991,1167,926,669,378,160,2,0,0,8,343,821,1059,993,929,812,456,46,6,0,0,32,373,800,1134
"LA JUNTA, CO",63,81050,37.98,-103.54,0,999,0,938,0,654,11,341,61,121,241,15,496,0,388,0,176,20,8,275,0,690,0,979,81050,37.98,-103.54,0,0,0,13,66,309,499,453,260,14,0,0,0,0,0,11,89,275,466,358,181,9,1,0,0,0,0,8,29,138,524,352,87,0,0,0,953,1041,598,349,134,6,0,0,14,216,513,720,958,898,662,276,158,18,0,0,30,297,808,1165,1086,875,703,397,70,20,0,0,15,311,750,1052
"PUEBLO, CO",64,81003,38.27,-104.62,0,1029,0,960,0,724,3,398,43,135,241,18,456,0,337,0,135,29,1,338,0,736,0,973,81003,38.27,-104.62,0,0,0,3,33,264,401,361,180,3,0,0,0,0,0,6,63,323,547,377,185,1,0,0,0,0,0,1,34,135,421,274,40,0,0,0,1009,1044,675,410,171,12,0,0,22,304,583,749,1013,968,728,362,172,20,0,0,24,321,838,1095,1065,867,768,423,62,22,0,0,40,389,788,1074
"TRINIDAD, CO",65,81082,37.16,-104.5,0,1000,0,928,0,739,3,451,26,179,186,36,342,0,258,2,111,39,1,351,0,702,0,904,81082,37.16,-104.5,0,0,0,2,20,209,326,275,167,4,0,0,0,0,0,4,55,239,334,283,138,0,0,0,0,0,0,2,3,109,367,215,29,0,0,0,984,970,709,472,198,27,0,1,42,310,547,721,928,949,741,405,191,35,0,5,24,376,815,978,1088,866,766,476,147,46,0,0,51,368,745,1014
"BRIDGEPORT, CT",66,06608,41.19,-73.18,0,961,0,863,0,721,4,431,30,172,153,17,365,1,335,0,107,26,5,247,1,571,0,856,06608,41.19,-73.18,0,0,0,0,37,205,308,361,157,15,0,0,0,0,0,0,41,157,408,386,114,0,2,0,0,0,0,11,11,96,378,259,51,0,0,0,986,912,710,424,176,7,3,0,9,134,619,750,1124,874,726,471,156,12,0,0,43,297,501,891,774,802,727,398,183,33,0,0,27,310,593,927
"HARTFORD, CT",67,06106,41.76,-72.68,0,1077,0,946,0,762,7,410,48,174,168,25,327,2,294,0,58,64,1,329,2,655,0,952,06106,41.76,-72.68,0,0,0,0,35,230,252,306,79,2,0,0,0,0,0,0,95,135,354,371,75,1,6,0,0,0,0,22,13,140,376,206,20,0,0,0,1113,1023,753,414,195,12,6,0,47,238,707,845,1245,937,766,455,129,18,0,0,75,348,568,954,874,879,768,362,199,45,0,0,70,400,690,1057
"WASHINGTON, DC",68,20009,38.92,-77.04,0,789,0,631,3,459,39,215,111,67,320,0,506,0,458,0,226,6,34,150,8,466,0,698,20009,38.92,-77.04,0,0,6,33,121,354,495,495,252,99,0,0,0,0,2,22,147,332,502,484,253,4,23,0,0,0,2,62,64,273,521,394,173,0,0,0,816,759,438,232,83,0,0,0,0,51,516,540,938,628,448,267,57,0,0,0,17,213,395,773,613,507,491,147,60,0,0,0,0,187,486,781
"WILMINGTON, DE",69,19802,39.76,-75.53,0,681,0,538,16,341,82,100,252,20,476,0,673,0,560,0,309,4,87,119,19,396,0,656,19802,39.76,-75.53,0,0,24,69,238,535,653,653,405,206,3,0,0,0,25,48,334,488,682,713,426,56,55,0,0,0,0,128,183,404,683,313,97,0,0,0,716,669,332,96,23,0,0,0,0,10,346,433,839,515,317,126,15,0,0,0,0,67,279,651,487,429,374,77,23,0,0,0,11,281,564,884
"DAYTONA BEACH, FL",70,32118,29.21,-81.0,201,36,344,8,468,1,554,0,713,0,770,0,868,0,761,0,671,0,531,0,303,1,235,59,32118,29.21,-81.0,155,332,410,482,701,764,864,887,786,705,341,414,177,307,510,564,744,778,837,882,773,604,494,292,271,393,485,616,694,769,904,513,454,285,73,0,29,21,0,0,0,0,0,0,0,0,0,3,58,2,2,0,0,0,0,0,0,0,0,50,20,0,0,0,0,0,0,0,0,0,4,123
"FORT LAUDERDALE, FL",71,33313,26.15,-80.23,407,3,497,0,564,0,609,0,712,0,721,0,814,0,745,0,674,0,612,0,451,0,385,7,33313,26.15,-80.23,368,492,523,579,708,716,781,825,737,713,444,529,372,465,574,613,716,702,804,850,775,694,630,482,481,534,594,635,711,745,857,561,509,430,278,144,0,0,0,0,0,0,0,0,0,0,0,0,6,0,0,0,0,0,0,0,0,0,0,22,4,0,0,0,0,0,0,0,0,0,0,0
"FORT MYERS, FL",72,33907,26.56,-81.87,113,68,210,18,293,3,370,1,495,0,546,0,629,0,595,0,543,0,429,1,248,1,163,20,33907,26.56,-81.87,68,200,213,314,493,543,593,594,553,504,184,248,106,189,342,381,480,536,628,629,559,390,350,193,166,242,324,415,511,559,665,561,518,394,209,48,76,35,4,3,0,0,0,0,0,0,2,4,82,19,4,0,0,0,0,0,0,3,1,56,45,1,1,0,0,0,0,0,0,0,0,0
"GAINESVILLE, FL",73,32603,29.66,-82.35,149,67,265,23,398,6,493,2,654,0,756,0,814,0,682,0,571,0,382,0,196,29,179,118,32603,29.66,-82.35,141,198,369,426,597,734,769,788,654,539,181,337,88,218,398,490,703,774,802,777,663,440,400,201,218,380,427,562,661,759,871,482,395,166,6,0,71,35,4,7,0,0,0,0,0,0,18,2,88,32,10,0,0,0,0,0,0,0,6,86,42,3,5,0,0,0,0,0,0,0,64,265
"JACKSONVILLE, FL",74,32277,30.38,-81.59,24,330,57,177,98,112,136,41,284,4,455,0,552,0,517,0,396,0,174,19,41,134,26,232,32277,30.38,-81.59,19,29,94,95,233,433,504,530,392,230,10,55,17,43,74,129,332,473,537,519,401,148,113,22,36,100,127,185,287,458,615,503,395,145,0,0,337,228,134,71,10,0,0,0,0,20,216,102,405,219,91,34,3,0,0,0,0,37,88,289,248,85,110,18,0,0,0,0,0,0,97,306
"KEY WEST, FL",75,33040,24.55,-81.78,194,12,287,2,366,0,422,0,517,0,565,0,637,3,618,0,558,0,493,0,349,0,280,8,33040,24.55,-81.78,135,290,345,418,512,540,598,623,565,531,272,333,203,220,358,402,507,536,600,627,555,473,431,281,243,352,394,446,531,620,712,603,554,476,345,225,4,5,0,0,0,0,0,0,0,0,0,0,23,1,0,0,0,0,8,0,0,0,0,23,8,0,0,0,0,0,0,0,0,0,0,0
"MELBOURNE, FL",76,32935,28.15,-80.65,73,146,139,47,216,18,272,7,402,0,507,0,595,0,553,0,473,0,340,1,171,18,87,58,32935,28.15,-80.65,54,154,163,223,419,502,556,561,486,389,114,161,74,102,227,264,419,529,639,581,481,307,270,98,90,160,258,328,369,489,590,518,452,323,129,2,161,66,14,11,0,0,0,0,0,0,47,21,168,58,14,9,0,0,0,0,0,2,8,99,110,17,27,0,0,0,0,0,0,0,0,55
"MIAMI, FL",77,33131,25.77,-80.18,182,32,278,6,339,1,408,0,514,0,542,0,622,0,613,0,553,0,477,0,319,0,242,14,33131,25.77,-80.18,130,284,298,378,510,537,587,619,549,505,242,297,167,242,351,412,518,523,610,644,587,486,428,271,250,309,369,434,513,566,670,575,523,439,287,159,15,17,0,0,0,0,0,0,0,0,0,0,54,2,2,0,0,0,0,0,0,0,0,43,26,0,0,0,0,0,0,0,0,0,0,0
"ORLANDO, FL",78,32839,28.49,-81.41,56,154,137,49,220,22,286,6,433,0,527,0,603,0,599,0,518,0,365,1,165,18,93,66,32839,28.49,-81.41,38,136,171,223,421,509,572,622,539,434,121,171,40,116,252,293,464,557,615,617,526,337,253,102,90,159,237,342,414,514,622,558,488,324,120,5,183,73,31,15,0,0,0,0,0,0,38,12,170,59,14,3,0,0,0,0,0,4,17,123,110,14,22,0,0,0,0,0,0,0,0,62
"PENSACOLA, FL",79,32501,30.43,-87.22,26,327,55,209,104,76,155,23,368,0,531,0,597,0,561,0,437,0,196,16,44,138,54,236,32501,30.43,-87.22,8,29,90,112,312,501,572,589,423,276,16,97,13,25,71,178,432,590,580,557,474,171,115,64,56,112,151,176,360,502,638,536,414,141,0,0,353,274,75,47,0,0,0,0,0,9,167,105,428,235,56,13,0,0,0,0,0,39,123,268,200,118,98,9,0,0,0,0,0,0,124,335
"TALLAHASSEE, FL",80,32304,30.45,-84.35,22,373,44,214,89,104,130,45,329,1,506,0,561,0,540,0,421,0,166,29,33,164,28,261,32304,30.45,-84.35,11,27,83,82,281,477,534,544,409,231,8,58,13,16,48,142,362,565,535,534,428,130,92,25,43,88,135,165,344,476,614,541,426,136,0,0,394,264,121,68,3,0,0,0,0,28,246,134,448,257,97,49,0,0,0,0,0,58,116,302,278,121,94,17,0,0,0,0,0,1,130,347
"TAMPA, FL",81,33606,27.95,-82.48,64,127,145,40,248,17,331,2,494,0,577,0,651,0,608,0,530,0,390,3,172,14,111,57,33606,27.95,-82.48,45,125,206,273,505,570,628,621,551,479,130,217,60,149,291,357,518,607,653,644,532,345,245,111,87,162,248,363,458,554,671,558,508,345,141,5,147,58,18,6,0,0,0,0,0,0,26,9,136,49,12,0,0,0,0,0,0,8,17,115,98,14,22,0,0,0,0,0,0,0,0,46
"VERO BEACH, FL",82,32962,27.59,-80.38,284,17,403,4,501,0,558,0,659,0,734,0,818,0,730,0,636,0,527,0,349,0,244,19,32962,27.59,-80.38,235,420,477,533,694,747,788,812,712,642,352,376,260,368,508,554,652,720,846,850,721,583,523,342,357,420,519,588,630,734,821,527,476,355,171,13,7,12,0,0,0,0,0,0,0,0,0,0,27,0,0,0,0,0,0,0,0,0,0,36,17,0,0,0,0,0,0,0,0,0,0,21
"WEST PALM BEACH, FL",83,33415,26.66,-80.13,137,57,249,15,318,1,370,0,479,0,527,0,604,0,603,0,522,0,435,0,279,1,185,19,33415,26.66,-80.13,93,275,292,345,514,540,571,606,526,478,209,236,126,213,327,366,472,513,629,644,535,419,377,213,192,258,334,400,450,527,612,558,504,408,250,105,52,32,0,0,0,0,0,0,0,0,3,5,80,10,4,0,0,0,0,0,0,0,0,52,39,3,0,0,0,0,0,0,0,0,0,0
"ALBANY, GA",84,31707,31.59,-84.21,76,186,161,72,316,14,432,1,642,0,767,0,811,0,693,0,551,0,312,10,142,105,127,214,31707,31.59,-84.21,64,124,294,363,592,747,807,799,639,497,119,227,38,113,279,439,676,808,750,789,658,375,308,154,126,245,374,494,658,746,877,492,356,65,0,0,199,102,15,3,0,0,0,0,0,0,61,36,245,95,11,0,0,0,0,0,0,9,36,155,113,19,16,0,0,0,0,0,0,21,218,450
"ATHENS, GA",85,30606,33.95,-83.39,2,573,8,382,16,254,37,134,193,24,384,0,491,0,459,0,257,3,55,139,8,353,3,520,30606,33.95,-83.39,0,1,22,44,174,416,501,519,284,144,0,6,6,6,10,29,269,458,488,432,252,13,24,2,0,18,17,39,137,278,483,425,235,8,0,0,573,456,218,118,29,0,0,0,0,168,372,318,663,401,257,142,4,0,0,0,9,146,324,621,484,290,287,143,39,0,0,0,0,102,364,621
"ATLANTA, GA",86,30308,33.77,-84.37,3,550,13,366,22,226,55,106,216,17,405,0,513,0,457,0,272,1,61,86,13,332,4,477,30308,33.77,-84.37,0,2,30,57,172,384,470,485,273,133,0,11,8,9,10,52,283,477,507,456,290,29,38,2,1,27,27,55,192,354,562,431,252,20,0,0,586,465,208,116,24,0,0,0,2,67,363,286,649,385,220,105,7,0,0,0,0,107,289,539,415,247,250,97,21,0,0,0,0,83,345,606
"AUGUSTA, GA",87,30903,33.49,-82.16,6,532,15,331,31,219,45,108,197,21,385,0,516,0,487,0,282,3,68,91,55,281,9,460,30903,33.49,-82.16,3,8,52,55,195,422,508,546,305,152,0,26,15,17,25,40,261,431,511,463,270,34,164,2,0,19,15,41,135,303,528,451,272,18,0,0,529,395,189,106,20,0,0,0,0,53,366,277,603,339,219,125,9,0,0,0,8,148,161,545,463,259,248,92,33,0,0,0,0,71,315,557
"BRUNSWICK, GA",88,31520,31.15,-81.48,20,384,38,221,76,144,98,61,243,11,437,0,586,0,505,0,367,1,145,35,24,172,22,280,31520,31.15,-81.48,11,13,79,70,215,422,486,497,351,195,4,57,24,30,62,98,310,497,590,506,348,94,67,10,24,72,88,127,203,393,682,511,403,146,0,0,396,292,159,85,15,0,0,0,0,34,279,147,444,242,116,51,4,0,0,0,2,72,141,367,311,128,157,48,13,0,0,0,0,0,97,327
"COLUMBUS, GA",89,31906,32.47,-84.95,7,476,24,307,35,169,65,77,249,11,455,0,565,0,508,0,337,0,88,50,15,269,16,383,31906,32.47,-84.95,3,6,31,56,207,416,504,514,332,153,0,37,13,12,23,70,320,562,616,500,336,52,46,12,4,54,50,69,219,387,575,510,343,58,0,0,493,398,156,99,17,0,0,0,0,43,320,241,552,308,165,79,0,0,0,0,0,79,241,418,383,214,185,54,15,0,0,0,0,29,245,490
"MACON, GA",90,31204,32.85,-83.67,5,492,23,312,34,189,55,94,231,16,430,0,539,0,499,0,298,2,70,71,13,293,15,417,31204,32.85,-83.67,4,5,34,49,191,415,510,520,308,144,0,32,12,11,25,55,299,508,535,501,288,36,38,12,0,53,43,60,204,366,573,477,298,30,0,0,512,396,181,115,22,0,0,0,0,52,355,270,568,334,175,91,5,0,0,0,5,107,235,453,395,207,210,75,21,0,0,0,0,55,289,527
"SAVANNAH, GA",91,31401,32.08,-81.1,15,394,42,240,80,138,101,58,264,8,443,0,551,0,510,0,345,2,115,39,18,212,22,323,31401,32.08,-81.1,16,17,83,73,236,432,501,522,341,178,0,46,20,29,64,87,344,489,544,507,335,83,55,21,8,81,92,142,212,409,607,501,358,83,0,0,394,314,140,86,8,0,0,0,0,36,300,184,490,267,128,55,4,0,0,0,6,69,152,369,299,140,145,34,13,0,0,0,0,11,183,416
"WAYCROSS, GA",92,31501,31.21,-82.35,23,363,46,213,88,125,119,48,293,3,552,0,638,0,518,0,373,0,137,31,26,182,29,289,31501,31.21,-82.35,17,21,100,96,262,460,522,540,382,203,7,67,27,36,65,120,372,765,799,522,373,111,71,21,26,80,98,141,244,431,594,492,365,96,0,0,384,278,141,71,7,0,0,0,0,31,258,141,423,235,98,42,1,0,0,0,0,57,134,351,282,127,136,31,1,0,0,0,0,5,153,375
"HILO, HI",93,96720,19.69,-155.08,273,0,226,0,284,15,272,15,325,0,321,0,369,0,377,0,358,0,354,0,293,0,252,0,96720,19.69,-155.08,287,235,241,278,371,327,366,401,363,337,317,259,272,244,315,268,306,308,355,367,370,395,286,265,259,198,296,271,299,328,386,362,341,331,275,231,0,0,45,45,0,0,0,0,0,0,0,0,0,0,0,0,0,0,0,0,0,0,0,0,0,0,0,0,0,0,0,0,0,0,0,0
"HONOLULU, HI",94,96826,21.29,-157.83,313,0,300,0,344,0,383,0,429,0,474,0,521,0,521,0,512,0,483,0,404,0,316,1,96826,21.29,-157.83,371,273,294,349,449,484,530,516,510,480,408,310,269,290,357,400,417,460,506,525,519,497,412,332,300,336,381,400,421,478,528,523,508,472,392,307,0,0,0,0,0,0,0,0,0,0,0,2,0,0,0,0,0,0,0,0,0,0,0,0,0,0,0,0,0,0,0,0,0,0,0,0
"KAHULUI, HI",95,96732,20.87,-156.45,281,0,237,0,294,0,331,0,388,0,422,0,482,0,481,0,469,0,449,0,375,0,293,0,96732,20.87,-156.45,338,229,246,265,376,402,468,452,456,421,381,305,266,243,336,394,410,438,487,529,526,513,411,306,240,239,300,334,379,425,492,461,426,414,333,268,0,0,0,0,0,0,0,0,0,0,0,0,0,0,0,0,0,0,0,0,0,0,0,0,0,0,0,0,0,0,0,0,0,0,0,0
"LIHUE, HI",96,96766,21.97,-159.35,265,0,240,0,271,0,285,0,353,0,380,0,502,0,465,0,450,0,396,0,348,0,307,0,96766,21.97,-159.35,292,216,232,276,371,428,502,524,452,373,351,310,228,224,269,291,338,308,472,409,449,402,364,349,275,280,312,287,351,405,531,461,450,412,330,263,0,0,0,0,0,0,0,0,0,0,0,0,0,0,0,0,0,0,0,0,0,0,0,0,0,0,0,0,0,0,0,0,0,0,0,0
"BURLINGTON, IA",97,52601,40.8,-91.12,0,902,0,819,11,386,113,123,391,7,662,0,701,0,547,0,359,5,134,140,20,508,5,859,52601,40.8,-91.12,0,0,17,131,295,703,704,714,551,273,6,12,0,0,14,78,437,643,684,638,457,130,55,2,0,0,3,130,441,641,715,288,68,0,0,0,868,1077,312,98,15,0,0,0,0,36,396,597,1121,797,422,184,6,0,0,0,0,82,403,830,718,584,424,87,0,0,0,0,16,302,726,1149
"CEDAR RAPIDS, IA",98,52402,42.02,-91.66,0,1388,0,1271,0,852,7,522,71,183,233,12,280,1,229,14,75,71,10,391,0,825,0,1200,52402,42.02,-91.66,0,0,0,12,53,259,261,259,93,24,0,0,0,0,0,3,101,230,315,212,108,5,0,0,0,0,0,7,58,210,265,217,24,0,0,0,1338,1528,756,459,259,15,0,0,39,319,818,1037,1589,1251,898,648,189,7,0,41,116,451,819,1284,1236,1034,902,459,100,15,4,0,57,404,839,1280
"DES MOINES, IA",99,50311,41.6,-93.67,0,1281,0,1162,0,756,13,435,99,141,297,2,356,1,328,0,131,42,15,337,0,760,0,1142,50311,41.6,-93.67,0,0,0,21,67,335,360,359,190,32,0,0,0,0,0,1,127,290,376,347,156,13,0,0,0,0,0,16,104,267,333,279,46,0,0,0,1192,1395,619,382,192,1,0,0,22,275,692,932,1452,1140,802,533,160,0,0,0,65,364,782,1256,1198,952,848,391,70,4,2,0,38,372,806,1239
"DUBUQUE, IA",100,52001,42.5,-90.69,0,1382,0,1287,0,870,5,536,67,199,212,17,248,1,196,1,54,85,9,408,0,834,0,1212,52001,42.5,-90.69,0,0,0,6,53,251,229,233,70,24,0,0,0,0,0,4,106,201,294,196,85,3,0,0,0,0,0,5,42,185,221,160,7,0,0,0,1330,1511,779,469,266,12,0,0,42,313,824,1023,1590,1260,900,633,197,13,0,3,112,461,806,1299,1225,1091,932,506,133,26,2,0,100,450,873,1314
"MASON CITY, IA",101,50401,43.15,-93.19,0,1498,0,1386,0,941,5,602,55,220,206,20,199,7,158,1,33,115,6,462,0,925,0,1358,50401,43.15,-93.19,0,0,0,4,62,282,210,167,45,15,0,0,0,0,0,0,68,165,211,150,53,2,0,0,0,0,0,10,34,170,175,156,2,0,0,0,1357,1571,784,512,279,12,2,4,76,358,859,1183,1700,1382,960,730,244,28,0,0,149,528,954,1466,1436,1205,1080,565,136,19,18,0,121,501,961,1425
"OTTUMWA, IA",102,52501,41.01,-92.41,0,1273,0,1155,0,774,12,461,82,156,261,9,315,1,293,0,114,44,15,336,0,738,0,1098,52501,41.01,-92.41,0,0,0,25,64,271,310,290,153,31,0,0,0,0,0,6,119,295,378,300,132,14,0,0,0,0,0,5,62,217,256,289,58,0,0,0,1221,1406,635,421,229,8,0,0,23,256,701,905,1450,1116,793,542,149,4,0,0,79,409,749,1207,1149,942,895,419,91,14,4,0,31,344,765,1183
"SIOUX CITY, IA",103,51104,42.54,-96.4,0,1296,0,1233,0,849,11,501,78,175,251,12,305,3,273,0,85,62,6,404,0,848,0,1239,51104,42.54,-96.4,0,0,0,8,64,272,302,300,111,9,0,0,0,0,0,5,81,244,345,290,124,8,0,0,0,0,0,20,89,237,267,229,19,0,0,0,1190,1476,695,472,240,3,1,0,47,348,734,1024,1346,1127,865,558,196,10,0,0,67,430,908,1374,1351,1097,986,473,90,24,9,0,71,433,901,1318
"SPENCER, IA",104,51301,43.14,-95.15,0,1097,0,1056,1,608,49,255,263,42,564,2,606,0,456,0,275,37,74,265,3,717,0,1140,51301,43.14,-95.15,0,0,4,49,206,592,610,605,411,124,0,0,0,0,0,36,254,557,654,595,404,98,9,0,0,0,0,63,330,543,555,167,9,0,0,0,991,1296,457,229,63,0,0,0,0,121,498,825,1147,951,623,305,50,0,0,0,0,178,681,1175,1152,921,744,232,12,7,0,0,110,496,971,1419
"WATERLOO, IA",105,50702,42.46,-92.31,0,1397,0,1285,0,849,13,503,83,169,259,8,291,1,246,0,76,72,13,402,0,832,0,1239,50702,42.46,-92.31,0,0,0,17,76,322,326,284,101,35,0,0,0,0,0,3,100,213,283,253,111,5,0,0,0,0,0,18,72,241,265,201,16,0,0,0,1336,1526,743,439,235,6,0,0,33,304,767,1040,1615,1262,875,612,184,8,0,0,99,446,834,1332,1240,1066,928,459,87,10,4,0,84,455,895,1344
"BOISE, ID",106,83704,43.63,-116.28,0,985,0,849,0,669,4,467,43,188,216,36,545,0,371,0,119,40,6,313,0,758,0,1033,83704,43.63,-116.28,0,0,0,3,30,357,593,299,112,7,0,0,0,0,0,0,14,140,532,532,206,11,0,0,0,0,0,9,86,151,511,281,38,0,0,0,877,827,619,392,187,13,0,0,59,314,611,947,1112,891,594,543,297,65,0,0,13,257,918,1100,966,829,794,465,81,30,0,0,48,369,746,1051
"BURLEY, ID",107,83318,42.39,-113.78,0,1125,0,984,0,811,2,592,2,301,116,84,339,0,202,10,39,111,0,441,0,829,0,1082,83318,42.39,-113.78,0,0,0,5,0,222,356,137,38,0,0,0,0,0,0,0,2,113,406,290,74,0,0,0,0,0,0,0,3,14,255,180,5,0,0,0,986,847,733,516,281,21,0,30,136,434,649,950,1235,1089,724,664,424,118,0,0,77,440,1014,1183,1155,1015,975,596,199,114,1,0,119,450,823,1112
"IDAHO FALLS, ID",108,83404,43.42,-112.0,0,1427,0,1314,0,1027,0,691,1,343,68,89,265,1,130,20,28,172,0,543,0,983,0,1297,83404,43.42,-112.0,0,0,0,0,0,100,240,89,17,0,0,0,0,0,0,0,2,98,347,225,67,0,0,0,0,0,0,0,1,6,209,76,0,0,0,0,1339,1192,945,645,369,30,0,54,183,529,815,1104,1475,1343,899,726,440,132,0,0,105,501,1143,1426,1468,1407,1236,703,220,106,2,5,227,600,991,1362
"LEWISTON, ID",109,83501,46.16,-116.92,0,873,0,769,0,593,4,423,55,160,221,30,476,0,372,0,93,37,4,322,0,711,0,965,83501,46.16,-116.92,0,0,0,2,40,359,541,360,104,0,0,0,0,0,0,0,5,88,432,487,143,12,0,0,0,0,0,11,119,215,454,268,33,0,0,0,795,833,578,332,141,24,0,1,38,324,557,920,935,753,525,525,275,45,0,0,11,233,848,1014,890,720,675,412,64,22,0,0,63,410,728,961
"POCATELLO, ID",110,83201,42.9,-112.39,0,1236,0,1128,0,896,0,650,2,327,81,90,283,1,166,13,37,139,0,509,0,914,0,1176,83201,42.9,-112.39,0,0,0,0,0,182,322,133,35,0,0,0,0,0,0,0,4,55,289,254,76,0,0,0,0,0,0,0,2,5,239,111,0,0,0,0,1110,969,833,597,321,29,0,38,151,503,750,1037,1349,1202,793,697,444,121,0,0,85,493,1087,1269,1250,1213,1063,657,216,121,2,0,182,532,906,1223
"CHICAGO, IL",111,60611,41.9,-87.61,0,1165,0,1058,0,732,15,453,96,180,237,12,312,0,299,0,118,50,24,322,2,716,0,1035,60611,41.9,-87.61,0,0,0,18,83,289,297,382,178,59,0,0,0,0,0,3,139,220,302,295,153,14,5,0,0,0,0,23,65,203,337,221,24,0,0,0,1108,1253,639,403,222,3,1,0,17,220,737,831,1376,1051,749,537,174,8,0,0,78,351,647,1109,1010,869,807,418,143,26,0,0,55,394,763,1165
"MOLINE, IL",112,61265,41.48,-90.48,0,1235,0,1107,0,724,13,421,108,134,280,3,333,0,291,0,117,45,20,330,1,719,1,1069,61265,41.48,-90.48,0,0,0,20,81,323,332,344,165,47,0,2,0,0,0,9,150,258,312,269,141,13,3,0,0,0,0,9,93,260,354,259,45,0,0,0,1201,1365,644,385,211,5,0,0,14,234,711,886,1454,1085,757,513,129,0,0,1,84,389,672,1128,1051,872,770,364,62,4,0,0,36,366,774,1194
"PEORIA, IL",113,61606,40.7,-89.61,0,1164,0,1058,0,674,12,392,105,125,293,3,344,0,317,0,141,38,24,300,1,702,0,1004,61606,40.7,-89.61,0,0,0,12,82,312,329,365,206,60,0,0,0,0,0,12,149,291,343,328,169,13,4,0,0,0,0,11,83,275,361,259,48,0,0,0,1130,1274,594,370,195,5,0,0,14,199,709,785,1375,1088,695,474,119,1,0,0,71,345,654,1082,987,812,732,331,62,2,0,0,30,355,743,1145
"QUINCY, IL",114,62301,39.93,-91.38,0,830,1,730,16,334,98,124,318,16,597,0,684,0,536,0,319,6,116,146,17,503,2,765,62301,39.93,-91.38,0,0,17,100,253,611,642,683,493,233,2,5,0,0,21,89,344,620,715,638,397,114,49,0,0,2,9,104,356,559,696,287,68,0,0,0,819,964,242,132,36,0,0,0,0,47,393,434,992,733,335,144,9,0,0,0,3,87,420,772,679,492,424,96,3,0,0,0,16,303,695,1089
"ROCKFORD, IL",115,61104,42.25,-89.08,0,1260,0,1159,0,783,9,481,85,176,231,14,272,0,245,1,86,68,19,375,0,784,0,1125,61104,42.25,-89.08,0,0,0,13,84,325,310,317,140,50,0,0,0,0,0,5,131,204,265,230,101,6,0,0,0,0,0,9,39,163,242,188,16,0,0,0,1186,1379,684,393,213,5,0,0,18,265,786,924,1496,1120,791,570,173,16,0,2,112,430,740,1204,1098,978,875,481,141,21,0,0,75,430,825,1246
"SPRINGFIELD, IL",116,62704,39.77,-89.68,0,1093,0,994,0,630,17,367,116,115,282,2,329,1,317,0,130,37,21,285,2,676,0,938,62704,39.77,-89.68,0,0,0,18,100,327,320,359,173,52,0,0,0,0,0,17,164,285,327,303,138,11,6,0,0,0,0,16,83,234,339,289,79,0,0,0,1082,1220,544,353,171,3,2,0,21,196,699,710,1274,991,643,428,111,0,0,0,76,369,653,1037,922,770,703,320,62,3,0,0,13,289,677,1068
"EVANSVILLE, IN",117,47714,37.96,-87.52,0,909,0,784,0,498,30,276,129,74,321,1,438,0,394,0,184,23,41,210,0,599,0,786,47714,37.96,-87.52,0,0,0,28,96,339,399,431,214,105,0,0,0,0,0,38,174,346,451,387,207,17,0,0,0,0,0,25,117,279,463,363,131,0,0,0,898,968,407,264,136,0,0,0,21,143,664,575,1090,826,522,313,38,0,0,0,45,253,564,879,738,559,565,250,49,2,0,0,2,235,570,904
"FORT WAYNE, IN",118,46807,41.04,-85.15,0,1132,0,1028,0,729,10,462,76,183,203,15,261,0,232,1,79,64,17,335,0,720,0,1004,46807,41.04,-85.15,0,0,0,3,72,249,259,289,119,50,0,0,0,0,0,8,108,210,248,208,88,0,0,0,0,0,0,20,49,151,277,199,29,0,0,0,1080,1218,664,446,253,7,0,0,45,227,764,829,1367,1046,719,535,122,13,0,2,98,393,668,1074,948,819,805,405,174,26,0,0,49,384,729,1108
"INDIANAPOLIS, IN",119,46201,39.77,-86.11,0,1044,0,914,0,627,16,380,92,128,255,5,346,0,327,0,137,40,21,276,0,671,0,907,46201,39.77,-86.11,0,0,0,15,76,278,312,396,183,60,0,0,0,0,0,14,119,281,376,316,164,3,0,0,0,0,0,20,80,207,351,270,63,0,0,0,1051,1092,565,366,205,2,0,0,30,185,735,711,1220,957,612,423,80,0,0,0,70,324,620,985,861,694,705,350,99,14,0,0,20,319,658,1024
"SOUTH BEND, IN",120,46615,41.67,-86.21,0,1142,0,1043,0,761,10,497,79,198,195,23,261,0,260,0,98,65,21,343,1,719,0,1018,46615,41.67,-86.21,0,0,0,11,82,252,265,327,151,56,0,0,0,0,0,4,108,184,273,257,122,6,2,0,0,0,0,15,47,150,245,196,21,0,0,0,1115,1204,679,466,276,10,0,0,27,250,748,858,1355,1067,767,577,157,20,0,0,105,382,669,1071,955,858,838,447,162,40,0,0,62,396,741,1124
"WEST LAFAYETTE, IN",121,47906,40.44,-86.91,0,1081,0,982,0,653,18,394,98,130,262,8,309,0,293,0,122,48,20,301,0,708,0,959,47906,40.44,-86.91,0,0,0,37,124,372,261,329,175,52,0,0,0,0,0,11,112,241,382,285,123,8,1,0,0,0,0,7,59,174,283,265,69,0,0,0,1028,1123,510,300,163,0,0,0,30,220,770,777,1289,1037,685,479,114,0,0,0,94,368,683,1046,926,787,764,403,113,23,0,0,20,315,672,1055
"CHANUTE, KS",122,66720,37.67,-95.48,0,869,0,849,2,490,31,249,147,80,406,0,546,0,503,0,280,4,44,164,3,552,1,776,66720,37.67,-95.48,0,0,0,27,84,393,483,531,334,69,0,2,0,0,2,37,181,450,640,568,358,62,9,0,0,0,3,28,175,376,515,411,148,0,0,0,860,1077,392,250,115,0,0,0,4,116,469,511,943,826,521,245,72,0,0,0,8,179,594,882,805,643,558,252,54,0,0,0,0,197,594,936
"CONCORDIA, KS",123,66901,39.57,-97.66,0,1028,0,963,0,619,25,331,131,109,368,1,443,0,435,0,212,12,30,233,4,645,0,974,66901,39.57,-97.66,0,0,0,25,68,380,436,464,255,54,0,0,0,0,0,28,173,391,423,458,279,37,11,0,0,0,0,22,153,333,471,382,103,0,0,0,965,1189,499,362,146,0,0,0,6,195,508,774,1095,908,645,335,135,2,0,0,23,230,705,1074,1024,791,713,296,45,1,0,0,8,275,723,1073
"DODGE CITY, KS",124,67801,37.75,-100.01,0,986,0,925,0,628,23,338,110,114,345,6,486,1,462,0,239,12,20,221,1,637,0,901,67801,37.75,-100.01,0,0,1,19,56,413,459,471,308,31,0,0,0,0,0,27,165,403,564,495,272,28,3,0,0,0,0,23,110,220,434,419,136,0,0,0,927,1095,542,384,138,2,0,0,8,205,535,731,1046,907,657,311,155,16,2,0,26,220,701,987,984,772,684,319,49,1,0,0,2,239,675,985
"GARDEN CITY, KS",125,67846,37.97,-100.86,0,1044,0,979,0,683,14,386,84,130,290,11,442,0,405,0,198,19,13,264,1,682,0,957,67846,37.97,-100.86,0,0,0,5,45,308,391,426,251,20,0,0,0,0,0,21,137,389,564,410,233,18,3,0,0,0,0,17,70,172,370,378,111,0,0,0,975,1140,606,446,160,4,0,0,18,237,556,789,1073,950,699,340,168,18,0,0,33,271,774,1056,1085,847,745,371,62,12,0,0,6,283,717,1027
"GOODLAND, KS",126,67735,39.34,-101.7,0,1076,0,1039,0,797,9,488,55,177,219,17,350,1,335,0,146,44,6,321,2,652,0,886,67735,39.34,-101.7,0,0,0,5,78,252,333,380,217,2,0,0,0,0,0,5,64,274,409,359,190,16,5,0,0,0,0,17,24,130,308,265,31,0,0,0,1056,1182,695,517,204,9,0,0,25,338,579,872,1088,1004,811,475,211,26,1,0,53,221,552,694,1085,931,884,472,116,17,2,0,55,405,824,1092
"RUSSELL, KS",127,67665,38.88,-98.85,0,1041,0,967,0,638,25,354,105,118,331,4,462,0,460,0,214,16,18,250,3,671,0,983,67665,38.88,-98.85,0,0,1,20,51,356,457,490,253,19,0,0,0,0,0,32,141,349,472,492,277,34,9,0,0,0,0,22,123,288,458,398,112,0,0,0,971,1158,494,406,153,4,0,0,17,219,542,818,1099,917,690,327,150,8,0,0,27,260,760,1090,1052,826,731,328,51,0,0,0,4,271,710,1041
"SALINA, KS",128,67401,38.81,-97.61,0,983,0,931,0,597,27,316,140,103,393,2,510,0,493,0,240,8,24,209,4,624,0,930,67401,38.81,-97.61,0,0,0,19,66,416,464,510,287,37,0,0,0,0,0,35,193,420,582,510,272,35,11,0,0,0,0,28,162,342,483,458,161,0,0,0,930,1104,467,344,132,2,0,0,8,179,526,732,1030,910,641,313,120,5,0,0,17,232,693,1055,990,778,682,292,57,0,0,0,0,217,654,1003
"TOPEKA, KS",129,66604,39.03,-95.69,0,981,0,937,0,572,25,297,142,92,384,1,462,0,423,0,199,11,29,224,3,618,0,903,66604,39.03,-95.69,0,0,0,20,72,387,426,445,263,41,0,0,0,0,1,31,185,394,484,452,227,46,8,0,0,0,0,24,169,371,476,371,106,0,0,0,929,1167,467,325,128,0,0,0,9,184,534,671,1070,903,613,317,96,4,0,0,18,236,655,1004,945,740,635,249,52,0,0,0,7,253,666,1033
"WICHITA, KS",130,67218,37.67,-97.28,0,929,0,907,1,523,29,274,136,86,372,2,503,0,511,0,274,3,34,168,3,591,0,858,67218,37.67,-97.28,0,0,0,19,56,374,445,521,326,47,0,0,0,0,1,40,195,400,573,551,311,53,9,0,0,0,1,27,157,341,491,462,184,1,0,0,903,1090,437,308,101,2,0,0,2,139,507,636,1009,898,562,256,108,5,0,0,8,171,644,977,875,733,570,259,50,0,0,0,0,195,621,962
"BOWLING GREEN, KY",131,42104,36.97,-86.44,1,788,2,655,6,418,29,250,149,57,358,0,558,0,424,0,183,15,38,185,3,523,5,652,42104,36.97,-86.44,0,0,1,20,101,368,442,472,188,104,0,14,2,0,11,41,197,418,573,434,218,11,10,0,0,5,6,27,150,288,658,366,143,0,0,0,809,840,373,256,108,0,0,0,17,119,575,377,937,678,417,270,19,0,0,0,27,221,472,755,617,447,464,224,44,0,0,0,1,215,523,825
"JACKSON, KY",132,41339,37.55,-83.37,5,620,13,473,55,217,150,77,336,7,531,0,644,0,514,0,315,3,132,106,28,385,10,544,41339,37.55,-83.37,0,4,46,113,234,515,572,618,407,247,10,16,3,0,67,162,440,601,692,640,435,150,73,13,12,34,52,176,335,477,669,285,102,0,0,0,655,674,202,109,20,0,0,0,0,28,365,281,818,478,219,95,0,0,0,0,3,59,275,524,388,267,230,26,2,0,0,0,6,231,516,827
"LEXINGTON, KY",133,40517,37.98,-84.49,0,923,0,747,1,518,23,320,98,100,255,4,375,0,329,0,134,30,21,232,2,586,0,761,40517,37.98,-84.49,0,0,0,10,72,243,299,329,130,51,0,0,0,0,0,34,143,321,419,351,173,12,5,0,0,0,3,25,78,202,406,306,98,0,0,0,963,957,511,384,189,8,0,0,33,179,670,574,1123,765,507,322,34,0,0,0,51,268,522,820,684,520,536,253,76,5,0,0,5,250,567,888
"LOUISVILLE, KY",134,40203,38.25,-85.77,0,851,1,693,1,431,35,246,153,53,357,0,480,0,437,0,221,15,43,176,1,522,0,702,40203,38.25,-85.77,0,0,2,33,135,388,459,496,261,112,0,0,0,0,2,35,204,396,501,438,242,17,4,0,0,2,0,37,119,286,481,377,159,0,0,0,880,878,387,243,102,0,0,0,13,112,569,468,1007,710,414,279,18,0,0,0,32,214,480,796,665,491,492,215,38,0,0,0,0,201,518,841
"PADUCAH, KY",135,42003,37.01,-88.58,0,830,1,726,3,422,35,233,159,51,360,0,462,0,400,0,198,12,51,183,4,553,0,702,42003,37.01,-88.58,0,0,1,28,118,381,435,434,229,125,0,0,0,0,3,48,197,371,498,415,231,27,11,0,0,4,5,30,162,328,453,352,133,0,0,0,824,942,365,237,99,1,0,0,7,118,585,439,999,743,429,261,22,0,0,0,29,217,536,804,668,494,472,201,32,0,0,0,0,213,537,864
"BATON ROUGE, LA",136,70802,30.44,-91.18,90,149,151,104,300,19,430,0,674,0,814,0,846,0,732,0,576,0,370,3,122,85,153,188,70802,30.44,-91.18,71,109,317,402,629,788,858,876,654,583,133,274,41,113,226,450,720,816,784,799,690,419,233,185,157,232,357,439,674,839,896,520,383,107,0,0,149,171,10,0,0,0,0,0,0,0,15,33,238,100,26,0,0,0,0,0,0,6,65,147,61,40,21,0,0,0,0,0,0,4,176,383
"LAFAYETTE, LA",137,70503,30.21,-92.02,30,338,52,309,101,125,148,29,389,0,575,0,636,0,558,0,413,0,204,17,35,161,78,251,70503,30.21,-92.02,9,32,96,124,299,493,572,593,410,304,16,141,30,25,34,167,453,606,660,549,428,169,88,94,50,99,173,154,414,626,675,533,402,139,0,0,376,429,119,61,0,0,0,0,0,10,170,116,437,309,159,19,0,0,0,0,0,41,190,307,202,189,96,8,0,0,0,0,0,0,123,330
"LAKE CHARLES, LA",138,70601,30.21,-93.2,15,366,39,322,88,133,143,29,349,0,520,0,598,0,551,0,408,0,191,21,26,186,54,269,70601,30.21,-93.2,4,36,107,170,314,518,562,587,405,294,12,109,14,16,28,158,405,542,584,521,413,136,67,52,27,66,130,100,328,500,648,544,407,143,0,0,389,399,106,39,0,0,0,0,0,14,191,114,446,350,184,20,0,0,0,0,0,50,228,338,264,218,108,28,0,0,0,0,0,0,138,356
"MONROE, LA",139,71201,32.53,-92.11,10,497,22,441,59,191,80,70,303,0,514,0,613,0,569,0,374,0,132,43,17,296,42,389,71201,32.53,-92.11,2,15,71,68,213,489,563,589,366,216,11,84,8,7,27,106,382,543,651,567,395,106,40,43,21,44,80,65,315,511,626,550,361,74,0,0,528,588,179,93,0,0,0,0,0,37,327,216,599,470,235,60,0,0,0,0,1,66,299,443,363,264,160,58,0,0,0,0,0,26,262,507
"NEW ORLEANS, LA",140,70116,29.97,-90.06,32,296,61,234,123,91,189,13,426,0,584,0,631,0,577,0,444,0,230,13,41,125,65,215,70116,29.97,-90.06,17,37,132,174,381,547,623,632,438,340,27,120,20,40,61,205,472,607,601,555,474,193,95,74,58,107,176,189,426,598,670,543,419,158,0,0,307,319,74,26,0,0,0,0,0,8,130,91,408,247,110,9,0,0,0,0,0,31,148,256,174,135,89,4,0,0,0,0,0,0,97,299
"SHREVEPORT, LA",141,71104,32.48,-93.73,8,466,20,427,57,181,99,63,328,1,545,0,642,0,600,0,403,0,160,40,23,273,54,368,71104,32.48,-93.73,0,11,58,91,250,512,576,615,421,254,16,114,0,7,41,143,408,584,704,622,414,142,52,49,25,41,71,63,327,540,646,564,374,84,0,0,495,569,169,87,2,0,0,0,0,31,261,169,534,456,226,37,0,0,0,0,0,65,295,424,368,255,147,65,0,0,0,0,0,23,262,511
"BOSTON, MA",142,02113,42.37,-71.06,0,1016,0,896,0,734,2,431,49,180,173,38,316,3,323,0,85,39,5,252,3,567,0,866,02113,42.37,-71.06,0,0,0,0,60,287,243,372,153,13,0,0,0,0,0,0,52,128,377,367,68,1,9,0,0,0,0,5,34,103,329,231,34,0,0,0,1047,959,712,424,168,3,9,0,15,168,611,800,1163,890,738,441,186,37,0,0,61,259,488,860,839,839,753,428,185,75,0,0,41,329,602,937
"CHATHAM, MA",143,02650,41.7,-69.95,0,741,0,700,0,567,8,300,92,108,235,20,402,1,358,0,175,25,55,161,16,435,0,672,02650,41.7,-69.95,0,0,1,7,106,365,327,489,322,121,1,0,0,0,0,0,99,189,467,484,198,45,48,0,0,0,0,18,71,152,411,100,5,0,0,0,772,763,545,293,99,0,3,0,0,52,396,534,888,694,570,303,118,17,0,0,7,79,311,594,564,643,585,303,107,43,0,0,68,353,598,888
"WORCESTER, MA",144,01610,42.25,-71.81,0,895,0,778,0,603,10,251,130,63,311,5,501,0,387,0,154,51,44,220,9,555,0,862,01610,42.25,-71.81,0,0,0,3,131,428,435,508,276,92,0,0,0,0,0,1,181,318,563,547,185,39,28,0,0,0,0,25,77,186,506,107,0,0,0,0,907,812,602,253,55,0,0,0,1,53,491,675,1041,771,574,251,47,0,0,0,9,130,416,798,736,751,633,249,86,15,0,0,142,477,757,1114
"BALTIMORE, MD",145,21231,39.29,-76.59,0,842,0,693,2,537,29,267,86,102,267,1,474,0,403,0,163,13,26,216,5,543,0,776,21231,39.29,-76.59,0,0,5,26,96,332,476,461,203,76,0,0,0,0,0,11,129,257,459,443,197,1,15,0,0,0,1,49,34,212,487,306,89,0,0,0,872,812,514,279,125,1,0,0,7,78,589,610,1004,699,533,324,77,0,0,0,24,282,465,848,650,569,563,198,104,1,0,0,9,288,575,871
"SALISBURY, MD",146,21801,38.38,-75.64,3,531,4,402,34,231,143,61,294,9,544,0,733,0,583,0,358,0,132,90,38,320,1,527,21801,38.38,-75.64,0,0,43,131,289,578,725,714,479,302,14,4,3,4,41,99,344,556,732,703,463,93,99,0,5,9,17,200,248,497,742,331,131,0,0,0,555,525,217,71,10,0,0,0,0,0,266,291,680,398,229,85,13,0,0,0,0,48,207,520,357,282,248,26,3,0,0,0,1,223,487,771
"AUGUSTA, ME",147,04330,44.33,-69.72,0,1247,0,1119,0,933,0,550,22,251,106,76,228,15,193,3,26,118,0,403,0,740,0,1102,04330,44.33,-69.72,0,0,0,0,14,156,87,224,37,1,0,0,0,0,0,0,34,98,331,236,41,0,1,0,0,0,0,1,17,64,265,120,0,0,0,0,1226,1144,977,555,281,42,46,7,65,325,751,1061,1414,1104,917,562,213,76,0,1,140,388,669,1031,1101,1109,906,533,259,109,0,0,148,497,801,1214
"BANGOR, ME",148,04401,44.83,-68.78,0,1025,0,903,0,699,8,294,130,53,322,6,465,0,381,1,150,66,31,267,9,616,0,970,04401,44.83,-68.78,0,0,0,4,109,423,345,516,255,58,0,0,0,0,0,0,164,265,492,534,194,36,26,0,0,0,0,20,118,277,558,93,0,0,0,0,984,928,743,295,69,0,0,0,3,114,537,854,1232,888,683,298,36,4,0,0,13,156,480,803,859,892,672,288,53,13,0,2,181,532,831,1252
"CARIBOU, ME",149,04736,46.86,-67.99,0,1547,0,1418,0,1182,0,722,15,392,48,137,127,37,88,42,6,263,0,540,0,959,0,1353,04736,46.86,-67.99,0,0,0,0,23,80,55,177,7,0,0,0,0,0,0,0,14,9,114,80,11,0,0,0,0,0,0,0,9,55,211,7,0,0,0,0,1404,1358,1184,653,406,80,77,36,204,464,926,1360,1814,1417,1224,785,350,160,32,39,259,472,923,1199,1424,1479,1139,727,419,171,1,52,327,684,1029,1501
"HOULTON, ME",150,04730,46.11,-67.83,0,1483,0,1363,0,1127,0,709,10,421,58,141,146,43,92,42,6,261,1,542,0,923,0,1309,04730,46.11,-67.83,0,0,0,0,13,93,34,168,10,0,0,0,0,0,0,0,10,38,202,92,8,2,1,0,0,0,0,0,8,43,202,17,0,0,0,0,1384,1333,1142,680,458,86,98,36,208,470,915,1302,1718,1340,1139,747,361,154,29,43,250,476,854,1163,1346,1417,1099,701,444,184,3,46,324,679,999,1461
"PORTLAND, ME",151,04101,43.66,-70.25,0,1187,0,1067,0,914,0,591,10,304,78,94,177,12,165,2,19,147,0,436,0,733,0,1069,04101,43.66,-70.25,0,0,0,0,15,166,102,189,30,0,0,0,0,0,0,0,10,42,216,226,28,0,0,0,0,0,0,0,6,27,214,79,0,0,0,0,1150,1101,929,574,294,45,34,2,83,345,752,1022,1373,1048,908,604,297,99,0,1,173,433,654,1026,1038,1052,904,594,321,138,2,2,184,530,794,1158
"ALPENA, MI",152,49707,45.07,-83.43,0,1319,0,1248,0,1034,0,690,27,359,82,88,116,26,108,16,23,202,3,487,1,845,0,1149,49707,45.07,-83.43,0,0,0,0,34,129,123,194,13,10,0,0,0,0,0,0,41,67,108,108,56,0,3,0,0,0,0,1,7,51,118,21,0,0,0,0,1224,1313,910,651,401,59,35,3,168,335,856,1090,1579,1309,1100,799,297,115,31,18,182,529,771,1090,1155,1123,1092,621,379,89,12,27,255,596,908,1267
"DETROIT, MI",153,48224,42.41,-82.94,0,1152,0,1035,0,775,8,481,67,191,184,16,283,0,284,0,90,63,17,330,0,715,0,985,48224,42.41,-82.94,0,0,0,4,65,249,280,339,103,52,0,0,0,0,0,7,101,173,290,290,134,0,0,0,0,0,0,13,34,130,278,222,32,0,0,0,1103,1166,689,434,247,13,0,0,53,222,768,860,1379,1077,796,553,126,11,0,0,78,367,652,1003,975,863,840,456,200,23,0,0,58,402,725,1093
"FLINT, MI",154,48503,43.02,-83.69,0,1209,0,1113,0,833,7,536,48,255,141,52,209,0,192,2,45,103,13,388,0,773,0,1058,48503,43.02,-83.69,0,0,0,4,57,201,200,272,49,40,0,0,0,0,0,6,70,125,209,190,85,0,1,0,0,0,0,10,17,97,217,115,0,0,0,0,1139,1245,686,468,318,40,1,1,64,240,801,946,1453,1134,895,643,185,50,0,5,120,439,718,1051,1035,959,918,496,262,67,0,0,125,486,801,1176
"GRAND RAPIDS, MI",155,49507,42.93,-85.66,0,1181,0,1106,0,850,5,544,56,233,169,29,223,0,214,2,50,91,8,393,0,771,0,1056,49507,42.93,-85.66,0,0,0,3,58,203,223,290,65,22,0,0,0,0,0,0,82,156,228,209,80,3,0,0,0,0,0,12,27,149,219,144,6,0,0,0,1142,1236,744,499,293,28,0,0,48,272,800,937,1376,1133,891,647,195,30,0,7,116,444,721,1074,1026,948,914,486,212,29,0,0,109,464,793,1157
"HANCOCK, MI",156,49930,47.13,-88.6,0,1390,0,1383,0,1172,0,811,14,399,61,123,96,55,74,36,14,244,3,522,0,936,0,1304,49930,47.13,-88.6,0,0,0,0,17,59,108,151,18,9,0,0,0,0,0,0,13,65,133,59,25,0,0,0,0,0,0,0,13,58,46,12,0,0,0,0,1286,1421,1053,732,444,82,68,27,186,362,913,1218,1607,1511,1254,898,366,159,42,47,246,557,882,1300,1276,1218,1210,804,386,128,54,35,300,646,1013,1394
"HOUGHTON LAKE, MI",157,48630,44.32,-84.77,0,1327,0,1262,0,1039,0,643,53,253,163,77,203,21,90,20,17,208,2,475,0,818,0,1180,48630,44.32,-84.77,0,0,0,0,29,123,163,176,12,7,0,0,0,0,0,0,62,175,172,73,40,0,0,0,0,0,0,0,68,192,273,20,0,0,0,0,1277,1370,921,595,394,59,16,11,176,289,820,1097,1545,1309,1124,770,265,108,16,26,207,555,732,1167,1158,1108,1073,565,101,64,31,24,240,581,901,1275
"JACKSON, MI",158,49202,42.27,-84.41,0,1191,0,1071,0,824,7,541,49,252,150,48,215,0,191,5,49,101,10,392,0,770,0,1044,49202,42.27,-84.41,0,0,0,3,60,207,198,270,79,31,0,0,0,0,0,6,77,167,256,170,63,0,0,0,0,0,0,11,9,76,192,132,6,0,0,0,1153,1200,721,491,304,29,0,4,70,267,820,915,1403,1107,857,640,182,46,0,10,125,444,705,1052,1017,906,893,491,271,68,0,0,108,465,784,1166
"LANSING, MI",159,48915,42.74,-84.57,0,1189,0,1086,0,829,9,516,67,223,185,23,236,0,223,2,52,98,11,383,0,756,0,1040,48915,42.74,-84.57,0,0,0,2,65,226,226,327,68,30,0,0,0,0,0,5,105,181,241,230,88,3,0,0,0,0,0,19,32,148,241,113,0,0,0,0,1193,1244,739,486,296,25,0,1,56,252,777,892,1360,1099,854,596,162,11,0,4,112,410,690,1052,1014,914,895,467,211,34,0,0,125,486,802,1176
"MARQUETTE, MI",160,49855,46.55,-87.39,0,1484,0,1416,0,1200,0,813,19,433,61,159,66,83,51,72,12,294,0,579,0,992,0,1376,49855,46.55,-87.39,0,0,0,0,16,71,91,108,7,0,0,0,0,0,0,0,29,59,69,44,29,0,0,0,0,0,0,0,12,54,38,0,0,0,0,0,1385,1490,1073,746,473,92,99,52,252,431,969,1291,1738,1503,1273,892,414,201,73,85,289,610,931,1358,1330,1256,1255,802,411,185,78,78,340,695,1077,1479
"MUSKEGON, MI",161,49441,43.22,-86.25,0,1113,0,1060,0,832,3,537,60,235,157,41,226,3,214,2,57,90,15,372,1,716,0,1000,49441,43.22,-86.25,0,0,0,3,45,176,211,284,66,33,0,0,0,0,0,0,96,130,236,240,102,11,3,0,0,0,0,6,39,166,232,117,2,0,0,0,1108,1206,775,514,315,27,6,0,46,239,726,879,1283,1075,860,624,186,47,2,5,93,405,638,994,949,900,860,474,203,48,0,0,132,472,783,1128
"SAGINAW, MI",162,48602,43.42,-83.97,0,1220,0,1132,0,886,6,547,57,251,164,33,237,1,192,1,39,108,11,390,0,772,0,1068,48602,43.42,-83.97,0,0,0,2,60,206,204,273,37,30,0,0,0,0,0,2,83,166,287,185,76,2,0,0,0,0,0,14,27,119,219,118,3,0,0,0,1178,1248,769,489,286,26,2,0,75,257,790,959,1425,1153,947,646,205,31,2,4,124,437,722,1066,1056,995,943,506,261,42,0,0,126,476,805,1179
"SAULT SAINTE MARIE, MI",163,49783,46.48,-84.36,0,1397,0,1334,0,1122,0,732,21,350,75,120,96,26,88,28,8,216,3,495,0,885,0,1240,49783,46.48,-84.36,0,0,0,0,23,84,114,185,2,8,0,0,0,0,0,0,26,62,115,80,22,0,0,0,0,0,0,0,15,79,60,0,0,0,0,0,1264,1347,1019,640,369,65,22,6,156,310,863,1139,1652,1424,1200,831,348,189,32,30,190,544,821,1196,1276,1230,1146,725,332,105,25,49,302,631,970,1384
"TRAVERSE CITY, MI",164,49684,44.76,-85.7,0,1185,0,1138,0,957,8,597,53,299,127,67,188,6,172,3,44,124,12,407,1,760,0,1089,49684,44.76,-85.7,0,0,0,4,57,173,171,258,39,31,0,0,0,0,0,0,79,111,201,165,94,5,4,0,0,0,0,19,22,98,191,92,0,0,0,0,1128,1223,829,570,355,38,14,1,88,271,768,1026,1393,1181,1046,703,256,86,4,7,133,452,684,1048,1034,1009,996,519,287,78,0,0,151,497,829,1192
"ALEXANDRIA, MN",165,56308,45.87,-95.37,0,1614,0,1562,0,1166,0,774,40,231,220,19,246,8,150,1,40,137,1,506,0,1040,0,1561,56308,45.87,-95.37,0,0,0,0,41,261,283,208,49,2,0,0,0,0,0,0,23,197,288,145,70,2,0,0,0,0,0,0,56,203,168,97,0,0,0,0,1420,1641,896,646,282,16,2,3,84,400,951,1475,1849,1643,1223,859,267,36,3,0,121,508,1063,1625,1573,1403,1379,816,144,6,20,1,206,611,1105,1584
"DULUTH, MN",166,55805,46.8,-92.1,0,1588,0,1547,0,1178,0,839,7,366,69,108,104,41,73,36,14,225,0,558,0,1050,0,1531,55805,46.8,-92.1,0,0,0,0,13,103,148,152,15,0,0,0,0,0,0,0,1,48,97,57,27,0,0,0,0,0,0,0,7,56,68,11,0,0,0,0,1439,1619,981,715,380,55,42,21,153,436,1017,1431,1860,1653,1260,931,380,169,31,37,215,578,1027,1582,1464,1370,1294,870,339,101,49,50,307,661,1105,1580
"HIBBING, MN",167,55746,47.4,-92.94,0,1727,0,1683,0,1269,0,870,6,421,55,126,68,79,36,69,4,310,0,642,0,1158,0,1637,55746,47.4,-92.94,0,0,0,0,12,59,65,79,11,0,0,0,0,0,0,0,1,64,108,17,2,0,0,0,0,0,0,0,6,41,32,12,0,0,0,0,1574,1725,1029,772,446,92,56,82,275,537,1165,1562,2014,1823,1360,979,463,179,52,74,316,681,1133,1673,1593,1502,1419,858,355,108,130,51,338,708,1176,1676
"INTERNATIONAL FALLS, MN",168,56649,48.58,-93.4,0,1747,0,1713,0,1265,0,868,14,348,77,95,82,50,72,49,10,273,0,610,0,1148,0,1657,56649,48.58,-93.4,0,0,0,0,26,80,136,141,16,0,0,0,0,0,0,0,4,51,66,56,13,0,0,0,0,0,0,0,12,100,44,18,0,0,0,0,1551,1753,993,749,403,60,25,68,193,484,1109,1603,2075,1867,1382,973,395,168,46,32,275,623,1125,1622,1615,1518,1421,882,247,57,78,47,350,723,1211,1745
"MINNEAPOLIS, MN",169,55404,44.96,-93.26,0,1462,0,1380,0,963,9,607,71,163,303,6,330,2,234,0,69,83,12,409,0,901,0,1384,55404,44.96,-93.26,0,0,0,1,66,363,355,286,85,22,0,0,0,0,0,0,65,239,335,238,117,13,0,0,0,0,0,26,81,308,299,179,5,0,0,0,1321,1497,755,515,208,5,5,0,39,307,838,1263,1686,1415,1026,711,180,8,0,0,86,418,896,1458,1379,1227,1109,596,101,4,0,0,123,503,970,1430
"ROCHESTER, MN",170,55901,44.07,-92.51,0,1499,0,1427,0,984,5,633,46,219,197,20,182,7,113,3,28,137,5,476,0,948,0,1403,55901,44.07,-92.51,0,0,0,3,49,260,207,139,36,14,0,0,0,0,0,0,62,158,180,106,48,1,0,0,0,0,0,12,26,173,160,94,0,0,0,0,1366,1589,832,556,272,15,2,5,89,368,879,1252,1724,1429,1009,738,233,26,2,5,146,508,953,1484,1408,1263,1111,604,152,20,18,0,175,552,1011,1474
"SAINT CLOUD, MN",171,56303,45.57,-94.21,0,1563,0,1508,0,1089,0,705,43,222,203,23,205,7,127,6,35,161,2,507,0,1000,0,1498,56303,45.57,-94.21,0,0,0,0,40,224,224,177,42,5,0,0,0,0,0,0,33,170,206,120,64,0,0,0,0,0,0,0,56,214,184,83,0,0,0,0,1399,1608,870,626,321,26,10,9,112,409,926,1403,1811,1545,1117,766,216,30,1,3,152,508,992,1527,1478,1370,1280,723,130,14,11,7,220,605,1083,1564
"COLUMBIA, MO",172,65203,38.88,-92.4,0,967,0,891,1,537,25,288,137,86,346,1,446,0,415,0,192,16,25,235,4,594,1,848,65203,38.88,-92.4,0,0,0,26,97,356,404,462,273,50,0,4,0,0,0,25,165,349,468,443,219,25,13,0,0,0,4,23,149,334,467,340,85,0,0,0,954,1148,443,297,125,0,0,0,6,177,541,590,1113,885,544,327,86,0,0,0,30,252,592,942,835,639,625,240,46,3,0,0,12,275,648,1011
"JOPLIN, MO",173,64801,37.08,-94.5,0,854,0,802,2,485,30,252,138,88,376,1,542,0,474,0,251,6,39,168,4,528,2,724,64801,37.08,-94.5,0,0,3,23,90,357,435,488,322,63,0,7,0,0,0,33,174,422,663,513,273,53,11,0,0,0,4,35,151,348,529,420,157,0,0,0,860,1028,394,266,123,4,0,0,8,153,469,459,940,787,511,254,86,0,0,0,10,189,574,841,762,591,551,236,56,0,0,0,0,162,541,872
"KANSAS CITY, MO",174,64124,39.11,-94.54,0,983,0,951,0,598,22,318,123,95,339,2,415,0,424,0,179,15,30,224,2,618,0,902,64124,39.11,-94.54,0,0,0,34,82,367,430,463,224,39,0,0,0,0,0,17,158,350,423,437,211,51,5,0,0,0,0,14,129,301,391,372,102,0,0,0,954,1167,465,305,119,0,0,0,15,197,549,676,1106,921,619,352,107,3,0,0,24,225,641,992,888,764,711,298,58,2,0,0,5,251,665,1039
"SAINT LOUIS, MO",175,63108,38.64,-90.25,0,940,0,843,2,493,33,257,174,72,408,0,504,0,463,0,230,11,47,189,6,559,0,805,63108,38.64,-90.25,0,0,1,32,139,422,458,507,302,108,0,1,0,0,2,33,199,431,531,462,229,33,19,0,0,0,3,33,183,370,522,420,160,0,0,0,929,1078,399,262,122,0,0,0,3,140,546,556,1102,847,489,286,64,0,0,0,29,224,545,898,789,604,591,223,30,0,0,0,0,204,587,962
"SPRINGFIELD, MO",176,65806,37.21,-93.3,0,915,0,836,1,524,20,301,118,101,320,3,465,0,427,0,201,13,26,204,2,565,0,762,65806,37.21,-93.3,0,0,0,14,72,321,397,451,267,52,0,0,0,0,0,24,148,344,537,435,196,27,7,0,0,0,2,23,134,294,462,394,140,0,0,0,918,1071,436,317,144,10,0,0,15,180,528,505,1025,838,539,325,95,0,0,0,22,234,598,879,801,600,597,262,63,0,0,0,2,198,569,903
"GREENWOOD, MS",177,38930,33.51,-90.19,49,257,115,209,238,44,364,2,640,0,827,0,914,0,741,0,545,0,334,18,89,161,137,293,38930,33.51,-90.19,20,79,249,335,571,809,880,880,664,555,66,251,28,65,158,380,704,845,912,833,647,398,200,160,100,202,306,378,646,828,950,510,323,49,0,0,261,335,28,3,0,0,0,0,0,0,67,79,355,197,54,3,0,0,0,0,0,8,108,240,155,96,49,0,0,0,0,0,0,46,307,559
"JACKSON, MS",178,39203,32.31,-90.2,14,506,33,418,60,208,73,81,281,2,475,0,569,0,510,0,324,1,102,61,13,311,35,384,39203,32.31,-90.2,3,23,68,67,210,457,531,535,331,202,1,73,11,11,19,87,343,493,563,488,315,61,38,33,28,66,93,66,290,476,612,506,325,43,0,0,528,570,189,105,0,0,0,0,1,54,344,202,622,434,257,80,0,0,0,0,2,78,288,414,367,251,178,58,5,0,0,0,0,51,300,536
"MCCOMB, MS",179,39648,31.24,-90.46,15,447,42,374,70,180,88,70,284,1,482,0,555,0,492,0,341,1,130,44,15,251,41,332,39648,31.24,-90.46,6,27,79,83,227,438,532,525,355,231,4,98,15,25,34,109,369,553,574,446,316,84,41,26,25,73,98,71,257,456,559,504,352,74,0,0,462,500,158,92,0,0,0,0,0,40,259,171,528,365,204,49,0,0,0,0,3,73,276,401,352,257,178,69,3,0,0,0,0,18,218,425
"MERIDIAN, MS",180,39307,32.34,-88.8,10,514,33,401,52,210,83,85,267,4,462,0,544,0,495,0,316,2,88,68,13,303,26,379,39307,32.34,-88.8,6,22,50,67,153,396,505,469,290,180,0,55,13,15,24,121,384,541,560,496,317,35,38,22,12,63,83,62,263,450,566,520,341,49,0,0,542,555,199,105,5,0,0,0,1,61,336,207,603,386,233,77,0,0,0,0,4,97,297,435,397,261,199,72,8,0,0,0,0,47,276,495
"TUPELO, MS",181,38801,34.26,-88.73,5,591,13,490,35,248,52,124,251,14,469,0,590,0,512,0,310,2,76,92,11,387,17,498,38801,34.26,-88.73,1,7,51,50,187,420,532,534,327,174,2,36,7,4,16,68,303,544,675,542,343,40,30,15,7,29,38,38,262,443,562,460,259,15,0,0,608,647,207,136,22,0,0,0,1,62,414,272,713,502,269,123,1,0,0,0,4,107,346,559,453,320,268,114,18,0,0,0,0,106,400,664
"BILLINGS, MT",182,59102,45.76,-108.57,0,1053,0,1148,0,884,1,650,13,290,122,53,359,3,254,13,77,103,4,444,0,886,0,1276,59102,45.76,-108.57,0,0,0,4,6,251,453,222,93,12,0,0,0,0,0,0,4,70,348,351,137,0,0,0,0,0,0,0,28,46,275,189,2,0,0,0,984,1350,736,591,352,4,0,35,79,424,628,1224,1101,1079,797,755,361,86,1,5,65,391,1110,1406,1074,1015,1119,604,157,70,8,0,164,518,921,1198
"BUTTE, MT",183,59701,46.0,-112.44,0,923,0,939,0,673,7,434,75,135,282,6,630,0,380,34,185,138,21,372,0,919,1,1236,59701,46.0,-112.44,0,0,0,11,40,402,727,468,249,42,0,2,0,0,0,0,41,200,604,671,306,20,0,0,0,0,0,9,143,243,559,0,0,0,0,0,818,1116,565,379,195,1,0,3,7,197,537,1012,960,863,576,537,178,8,0,0,9,176,1090,1237,990,839,877,387,32,8,1,99,397,743,1130,1459
"CUT BANK, MT",184,59427,48.65,-112.84,0,841,0,960,0,663,16,417,80,112,248,6,592,0,357,27,170,139,31,380,1,867,1,1255,59427,48.65,-112.84,0,0,1,25,42,345,675,444,207,68,2,2,0,0,0,4,41,189,606,626,302,25,0,0,0,0,0,19,156,211,495,0,0,0,0,0,794,1226,499,378,181,0,0,7,40,270,510,1158,893,865,585,495,131,11,0,0,20,188,1030,1257,837,788,905,379,24,6,1,73,356,681,1060,1351
"GLASGOW, MT",185,59230,48.1,-106.84,0,1390,0,1314,0,1088,0,699,23,259,157,32,346,3,255,13,61,136,4,511,0,1076,0,1643,59230,48.1,-106.84,0,0,0,1,12,231,450,237,60,11,0,0,0,0,0,0,3,94,331,384,123,0,0,0,0,0,0,0,55,145,256,145,0,0,0,0,1160,1511,788,607,361,2,0,34,94,470,832,1639,1491,1171,987,747,306,73,1,3,85,452,1286,1763,1518,1259,1489,743,109,20,9,1,229,612,1109,1527
"GREAT FALLS, MT",186,59401,47.51,-111.27,0,1086,0,1202,0,959,0,745,3,395,41,138,210,11,140,40,41,198,2,530,0,981,0,1371,59401,47.51,-111.27,0,0,0,0,3,92,280,143,48,5,0,0,0,0,0,0,0,20,211,236,74,0,0,0,0,0,0,0,5,11,138,40,0,0,0,0,1039,1469,794,697,502,87,3,100,166,519,724,1376,1138,1107,881,835,450,182,3,4,149,475,1246,1477,1082,1030,1201,704,233,146,26,16,279,597,974,1259
"HAVRE, MT",187,59501,48.56,-109.73,0,1299,0,1291,0,1058,0,708,8,309,81,79,256,3,182,24,39,172,0,547,0,1063,0,1619,59501,48.56,-109.73,0,0,0,0,0,137,333,165,29,1,0,0,0,0,0,0,2,45,231,285,88,0,0,0,0,0,0,0,21,60,205,95,0,0,0,0,1131,1542,801,635,433,54,0,63,144,546,831,1621,1313,1153,928,799,350,119,3,2,121,469,1285,1812,1452,1179,1446,690,145,65,7,6,250,625,1074,1424
"HELENA, MT",188,59601,46.53,-112.21,0,1164,0,1134,0,890,0,668,6,309,89,75,308,1,189,20,41,159,0,515,0,1024,0,1338,59601,46.53,-112.21,0,0,0,0,0,170,399,171,39,1,0,0,0,0,0,0,2,48,276,330,83,0,0,0,0,0,0,0,15,48,249,66,0,0,0,0,1059,1311,782,608,398,31,0,48,113,462,749,1220,1201,1058,793,777,382,118,0,1,102,462,1302,1444,1231,1033,1094,618,147,75,3,11,261,622,1020,1350
"KALISPELL, MT",189,59901,48.19,-114.38,0,1198,0,1156,0,917,0,726,3,384,58,149,174,6,77,63,5,284,0,634,0,1028,0,1349,59901,48.19,-114.38,0,0,0,0,0,88,210,111,0,0,0,0,0,0,0,0,0,56,203,118,15,0,0,0,0,0,0,0,8,31,108,3,0,0,0,0,1081,1226,828,642,436,113,2,107,272,642,834,1283,1267,1087,842,846,517,213,4,30,226,546,1234,1467,1247,1154,1080,691,198,122,13,53,353,714,1016,1297
"LEWISTOWN, MT",190,59457,47.01,-109.34,0,1169,0,1276,0,1026,0,793,0,444,44,166,189,16,122,37,25,224,1,576,0,1020,0,1399,59457,47.01,-109.34,0,0,0,0,0,83,252,166,15,3,0,0,0,0,0,0,0,46,219,178,59,0,0,0,0,0,0,0,0,2,96,22,0,0,0,0,1134,1519,867,744,533,89,2,67,203,555,768,1375,1185,1201,982,874,520,218,4,17,160,535,1282,1537,1187,1107,1229,760,280,190,42,27,308,638,1011,1285
"MILES CITY, MT",191,59301,46.22,-105.6,0,1247,0,1245,0,976,1,679,17,282,149,38,385,4,287,9,63,104,3,492,0,1001,0,1488,59301,46.22,-105.6,0,0,0,2,12,242,488,236,57,10,0,0,0,0,0,0,2,76,364,375,124,0,0,0,0,0,0,2,38,128,303,249,9,0,0,0,1129,1463,796,615,366,2,0,23,108,485,770,1447,1325,1157,905,782,331,91,0,3,64,459,1239,1642,1287,1116,1226,639,149,21,11,0,139,532,994,1376
"MISSOULA, MT",192,59801,46.85,-113.99,0,1213,0,1077,0,834,0,648,9,314,70,94,272,0,158,25,20,190,0,542,0,1003,0,1240,59801,46.85,-113.99,0,0,0,0,0,125,313,135,12,0,0,0,0,0,0,0,0,27,258,283,49,0,0,0,0,0,0,0,27,57,245,56,0,0,0,0,1075,1127,804,607,411,73,0,61,190,540,810,1119,1323,1031,754,736,400,130,0,3,116,453,1212,1314,1241,1073,943,602,132,80,0,12,264,633,986,1288
"ASHEVILLE, NC",193,28801,35.59,-82.56,0,783,0,590,0,461,7,287,55,81,178,7,323,0,255,0,83,37,15,272,2,557,0,703,28801,35.59,-82.56,0,0,0,11,47,198,283,295,108,46,0,0,0,0,0,0,76,219,336,256,93,0,5,0,0,0,1,11,42,118,351,213,47,0,0,0,796,689,432,305,120,4,0,0,32,167,600,533,893,623,443,307,35,1,0,0,57,348,518,774,660,459,507,249,88,15,0,0,21,300,553,801
"CHARLOTTE, NC",194,28202,35.23,-80.84,2,647,4,460,16,303,48,151,170,36,353,0,507,0,449,0,240,8,51,122,9,388,1,556,28202,35.23,-80.84,0,0,12,40,156,371,475,483,237,130,0,2,7,0,16,49,229,415,526,426,243,7,26,0,0,12,19,55,126,272,519,438,241,16,0,0,696,585,297,176,53,0,0,0,3,70,457,361,745,473,282,142,17,0,0,0,22,183,338,683,499,323,329,134,38,0,0,0,0,112,370,625
"GREENSBORO, NC",195,27403,36.07,-79.82,2,759,2,554,6,393,30,203,113,70,269,2,436,0,383,0,176,15,22,180,7,469,1,653,27403,36.07,-79.82,0,0,6,34,107,293,409,422,186,66,0,2,5,0,5,27,163,338,448,373,191,0,20,0,0,6,6,30,70,176,452,355,151,0,0,0,803,687,397,217,93,0,0,0,11,90,534,442,865,568,363,210,39,0,0,0,35,252,407,780,610,407,420,182,79,6,0,0,0,197,466,737
"HATTERAS, NC",196,27943,35.22,-75.68,28,281,51,201,128,105,252,16,375,1,580,0,750,0,619,0,479,0,255,10,96,125,44,281,27943,35.22,-75.68,3,10,151,252,410,665,770,715,538,456,74,85,24,39,143,198,410,570,704,715,598,257,215,47,56,104,89,305,306,505,777,427,301,51,0,0,262,246,106,19,0,0,0,0,0,0,94,119,430,234,100,16,4,0,0,0,0,3,63,263,151,124,110,13,0,0,0,0,0,26,218,460
"HICKORY, NC",197,28601,35.77,-81.33,12,437,32,265,99,121,215,39,394,3,578,0,727,0,567,0,347,0,152,71,45,286,25,466,28601,35.77,-81.33,0,6,97,202,366,596,699,703,450,329,24,70,21,18,103,221,471,640,750,646,437,128,112,5,15,71,98,222,346,497,733,352,155,0,0,0,477,368,117,59,6,0,0,0,0,3,233,211,540,268,104,35,2,0,0,0,0,38,176,470,295,159,143,22,1,0,0,0,0,171,448,716
"NEW BERN, NC",198,28560,35.11,-77.07,5,595,8,421,27,290,67,131,173,37,352,1,523,0,462,0,283,2,60,75,13,314,10,470,28560,35.11,-77.07,0,2,28,54,171,367,461,505,277,122,0,29,10,5,26,66,264,387,563,454,296,33,40,2,5,17,26,80,85,301,546,427,275,26,0,0,660,522,300,154,52,0,0,0,0,44,393,302,679,429,261,145,27,0,0,0,7,120,247,557,445,313,310,95,33,4,0,0,0,60,301,550
"RALEIGH, NC",199,27601,35.77,-78.63,2,674,5,482,16,346,61,159,160,56,344,0,508,0,445,0,239,7,43,129,15,406,2,582,27601,35.77,-78.63,0,0,10,51,147,336,445,491,245,107,0,5,7,1,24,59,228,401,536,466,284,18,44,0,0,13,15,74,106,294,542,379,189,3,0,0,746,630,411,197,89,0,0,0,2,69,484,388,791,486,292,156,29,0,0,0,18,166,317,676,485,329,335,124,49,0,0,0,0,153,416,681
"WILMINGTON, NC",200,28403,34.21,-77.91,7,518,17,364,47,238,88,93,233,23,390,0,542,0,499,0,327,1,87,46,20,258,14,405,28403,34.21,-77.91,3,4,41,73,209,416,505,525,332,170,1,37,13,14,35,66,327,416,563,508,344,54,60,4,4,34,64,126,163,337,559,464,305,37,0,0,555,464,244,111,36,0,0,0,0,26,322,234,628,366,215,106,16,0,0,0,3,72,203,485,372,261,254,61,17,1,0,0,0,40,249,496
"BISMARCK, ND",201,58501,46.82,-100.7,0,1466,0,1411,0,1129,0,774,26,258,185,28,293,9,222,3,43,126,4,529,0,1076,0,1591,58501,46.82,-100.7,0,0,0,0,24,240,431,261,60,13,0,0,0,0,0,0,1,123,266,272,69,0,0,0,0,0,0,0,53,192,182,133,0,0,0,0,1207,1518,813,653,310,5,0,6,50,451,884,1478,1609,1385,1023,835,302,63,3,2,110,526,1242,1759,1581,1331,1551,833,161,16,25,2,217,609,1103,1537
"DEVILS LAKE, ND",202,58301,48.11,-98.87,0,1354,0,1320,0,1005,1,512,204,64,481,0,537,0,386,1,180,79,40,378,1,947,0,1535,58301,48.11,-98.87,0,0,0,2,163,529,665,556,298,81,0,0,0,0,0,0,134,365,516,512,242,39,3,0,0,0,0,0,314,550,429,90,0,0,0,0,1094,1392,663,370,106,0,0,0,0,226,698,1379,1544,1351,964,569,62,0,0,0,8,267,968,1574,1425,1218,1389,598,23,0,0,4,230,640,1175,1653
"DICKINSON, ND",203,58601,46.88,-102.78,0,1574,0,1222,0,1068,0,661,0,317,23,49,172,0,120,2,0,228,0,607,0,1075,0,1441,58601,46.88,-102.78,0,0,0,0,0,8,142,120,0,0,0,0,0,0,0,0,0,53,232,120,0,0,0,0,0,0,0,0,0,8,142,120,0,0,0,0,1566,1222,1068,661,317,49,0,2,228,607,1075,1427,1591,1222,1068,661,317,49,0,2,228,607,1075,1448,1566,1222,1068,661,317,49,0,2,228,607,1075,1448
"FARGO, ND",204,58103,46.87,-96.81,0,1663,0,1604,0,1217,0,803,59,241,226,21,233,6,158,6,32,145,5,537,0,1084,0,1642,58103,46.87,-96.81,0,0,0,0,35,218,307,224,59,13,0,0,0,0,0,0,16,159,211,126,36,1,0,0,0,0,0,0,126,300,181,125,0,0,0,0,1415,1632,896,673,286,14,0,4,73,445,961,1569,1895,1660,1225,894,318,49,8,13,153,563,1157,1735,1678,1519,1531,843,120,0,11,0,208,604,1135,1621
"GRAND FORKS, ND",205,58201,47.91,-97.07,0,1421,0,1378,0,1003,3,503,242,61,518,2,526,2,367,1,184,83,51,387,0,953,0,1508,58201,47.91,-97.07,0,0,0,5,203,530,634,558,321,104,0,0,0,0,0,3,142,398,459,451,231,49,1,0,0,0,0,0,381,626,485,93,0,0,0,0,1168,1408,682,375,91,0,0,0,1,224,745,1352,1665,1433,1011,594,81,5,7,0,14,299,942,1511,1430,1294,1317,540,12,0,0,4,234,637,1173,1661
"JAMESTOWN, ND",206,58401,46.91,-98.69,0,1569,0,1521,0,1207,0,834,33,272,189,26,256,14,163,7,24,154,1,545,0,1078,0,1636,58401,46.91,-98.69,0,0,0,0,22,200,321,199,38,3,0,0,0,0,0,0,5,152,315,162,33,0,0,0,0,0,0,0,72,215,131,127,0,0,0,0,1308,1593,865,690,344,14,4,6,99,473,916,1553,1758,1552,1166,891,312,57,0,13,158,553,1183,1775,1640,1419,1591,920,160,8,37,1,206,608,1134,1581
"MINOT, ND",207,58704,48.42,-101.32,0,1486,0,1486,0,1186,0,805,27,273,158,35,242,18,171,11,42,141,6,534,0,1065,0,1623,58704,48.42,-101.32,0,0,0,0,19,199,347,194,59,17,0,0,0,0,0,0,4,98,223,211,67,0,0,0,0,0,0,0,57,177,157,108,0,0,0,0,1283,1614,861,655,326,14,6,23,63,443,860,1549,1647,1499,1153,914,309,73,5,7,122,532,1206,1769,1527,1345,1545,847,185,19,44,4,237,626,1129,1551
"WILLISTON, ND",208,58801,48.16,-103.63,0,1195,0,1151,0,822,5,412,199,53,518,0,664,1,504,1,241,88,52,350,1,940,0,1440,58801,48.16,-103.63,0,0,0,14,175,611,841,690,386,104,0,0,0,0,0,0,133,391,598,705,338,51,4,0,0,0,0,0,288,552,552,118,0,0,0,0,929,1258,506,301,84,0,0,0,0,179,642,1224,1355,1124,716,469,57,1,3,0,3,214,1004,1494,1300,1071,1243,467,19,0,0,3,262,658,1174,1603
"GRAND ISLAND, NE",209,68801,40.95,-98.29,0,1121,0,1100,0,744,19,431,89,137,312,3,368,0,327,0,131,35,10,340,2,751,0,1115,68801,40.95,-98.29,0,0,0,20,65,346,371,359,168,10,0,0,0,0,0,18,101,319,390,349,193,21,7,0,0,0,0,20,100,272,344,272,33,0,0,0,1061,1373,587,423,173,0,0,0,27,293,600,907,1138,988,756,449,160,6,0,1,30,327,803,1225,1164,939,888,420,78,4,0,0,49,401,850,1213
"LINCOLN, NE",210,68503,40.82,-96.67,0,1151,0,1120,0,715,23,409,113,124,341,4,397,1,383,0,156,34,16,320,3,735,0,1097,68503,40.82,-96.67,0,0,0,24,87,352,372,416,180,14,0,0,0,0,0,21,122,348,470,402,222,33,8,0,0,0,0,25,130,322,348,330,65,0,0,0,1109,1393,567,385,161,0,0,0,28,270,600,890,1219,1012,752,464,146,7,0,0,45,335,803,1214,1124,955,826,378,66,4,2,0,29,354,803,1186
"NORFOLK, NE",211,68701,42.03,-97.41,0,1227,0,1177,0,803,15,479,97,155,297,7,357,1,309,0,113,48,11,384,1,812,0,1199,68701,42.03,-97.41,0,0,0,14,65,309,324,336,144,10,0,0,0,0,0,8,93,314,456,342,170,24,2,0,0,0,0,22,132,268,290,249,26,0,0,0,1145,1426,646,463,211,2,0,0,36,321,646,996,1254,1076,824,514,173,13,0,0,40,404,899,1324,1282,1030,939,461,82,5,2,0,68,426,892,1278
"NORTH PLATTE, NE",212,69101,41.13,-100.77,0,1185,0,1134,0,828,10,515,37,184,230,12,349,4,320,0,103,61,3,420,0,822,0,1138,69101,41.13,-100.77,0,0,0,0,32,264,360,351,146,4,0,0,0,0,0,13,52,280,401,367,146,6,0,0,0,0,0,16,26,146,285,243,16,0,0,0,1081,1333,675,538,207,7,0,0,41,388,659,959,1177,1011,863,483,221,15,0,0,53,400,905,1243,1298,1057,945,523,125,14,11,0,88,472,903,1211
"OMAHA, NE",213,68105,41.24,-95.96,0,1202,0,1119,0,735,21,403,119,129,338,3,379,0,361,0,144,36,17,319,1,745,0,1127,68105,41.24,-95.96,0,0,0,28,77,384,400,410,203,28,0,0,0,0,0,17,151,304,402,371,175,22,3,0,0,0,0,18,129,326,336,303,55,0,0,0,1124,1361,579,375,165,0,0,0,18,241,609,899,1303,1026,752,457,154,4,0,0,52,353,823,1263,1178,970,873,377,68,6,1,0,37,362,802,1219
"SCOTTSBLUFF, NE",214,69361,41.86,-103.66,0,1121,0,1098,0,836,2,560,15,222,197,14,365,4,280,0,96,79,1,447,0,837,0,1149,69361,41.86,-103.66,0,0,0,0,7,284,409,273,139,3,0,0,0,0,0,6,16,208,402,379,146,0,0,0,0,0,0,1,22,99,284,187,3,0,0,0,1034,1258,784,570,263,4,0,0,53,405,627,937,1089,1020,804,579,280,15,0,0,54,412,962,1295,1239,1015,919,530,123,22,11,0,129,524,923,1215
"VALENTINE, NE",215,69201,42.87,-100.55,0,1154,0,1181,0,868,9,567,37,194,218,21,359,4,306,0,97,73,6,451,0,868,0,1256,69201,42.87,-100.55,0,0,0,3,31,294,461,362,131,9,0,0,0,0,0,13,34,208,375,330,149,10,0,0,0,0,0,10,47,153,242,226,12,0,0,0,1043,1311,673,541,244,1,0,0,36,368,597,1042,1066,1053,849,573,221,32,0,1,72,475,1055,1443,1354,1179,1081,586,116,29,12,0,111,509,952,1282
"CONCORD, NH",216,03301,43.23,-71.56,0,1230,0,1093,0,906,1,551,29,263,106,69,210,7,207,2,24,138,1,435,1,770,0,1104,03301,43.23,-71.56,0,0,0,0,28,184,139,242,44,2,0,0,0,0,0,0,55,51,222,270,28,0,4,0,0,0,0,4,5,82,270,110,0,0,0,0,1198,1162,886,553,266,44,18,7,91,317,800,1041,1445,1044,897,589,220,75,2,0,161,456,694,1067,1047,1073,934,511,303,89,1,0,161,531,815,1204
"LEBANON, NH",217,03784,43.64,-72.31,0,960,0,840,2,622,15,230,202,30,410,1,580,0,434,1,185,68,61,250,12,611,0,957,03784,43.64,-72.31,0,0,5,7,197,513,502,597,316,136,0,0,0,0,1,0,268,349,601,632,239,46,35,0,0,0,0,39,142,368,637,72,0,0,0,0,928,909,605,225,29,0,0,0,2,74,528,791,1175,791,612,254,27,0,0,0,11,125,453,817,777,819,648,211,34,2,0,3,191,551,851,1264
"MOUNT WASHINGTON, NH",218,03589,44.27,-71.3,0,1715,0,1585,0,1569,0,1188,0,871,0,569,2,419,0,433,0,682,0,912,0,1315,0,1601,03589,44.27,-71.3,0,0,0,0,0,0,0,0,0,0,0,0,0,0,0,0,0,0,5,0,0,0,0,0,0,0,0,0,0,0,0,0,0,0,0,0,1700,1611,1562,1197,903,506,514,358,651,816,1393,1541,1934,1587,1572,1250,758,599,374,411,663,844,1228,1565,1511,1557,1573,1116,952,601,370,530,733,1076,1325,1698
"ATLANTIC CITY, NJ",219,08401,39.36,-74.42,0,898,0,766,1,615,17,344,53,167,177,13,407,0,351,0,127,23,13,231,4,555,0,799,08401,39.36,-74.42,0,0,4,18,63,245,375,384,184,38,0,0,0,0,0,7,82,174,426,400,132,0,12,0,0,0,0,27,14,113,421,268,65,0,0,0,926,832,598,360,164,6,0,0,10,111,601,674,1069,782,600,392,127,7,0,0,39,278,493,857,699,683,648,280,211,26,0,0,19,303,571,867
"NEWARK, NJ",220,07107,40.76,-74.19,0,904,0,791,1,612,18,308,85,95,275,2,481,0,428,0,168,16,23,207,6,510,0,776,07107,40.76,-74.19,0,0,3,10,93,340,432,467,227,65,0,0,0,0,0,7,115,275,521,485,181,4,18,0,0,0,0,38,47,209,491,333,96,0,0,0,944,891,607,323,115,0,0,0,3,79,535,628,1120,808,615,351,77,0,0,0,37,283,442,825,649,674,615,249,94,7,0,0,8,259,553,875
"ALBUQUERQUE, NM",221,87108,35.07,-106.58,0,839,0,715,0,539,6,215,121,22,339,1,531,0,371,0,218,5,6,230,0,576,0,802,87108,35.07,-106.58,0,0,0,1,114,395,444,394,270,10,0,0,0,0,0,14,160,326,507,372,255,9,0,0,0,0,0,3,88,296,642,346,129,0,0,0,848,680,522,225,32,2,0,0,14,211,430,726,818,768,514,168,20,0,0,0,0,250,684,787,850,697,582,251,13,0,0,0,2,230,613,893
"CARLSBAD, NM",222,88220,32.4,-104.23,1,652,0,579,10,317,68,112,288,9,543,0,623,0,465,0,298,0,52,90,3,429,5,526,88220,32.4,-104.23,0,0,5,48,264,489,451,438,336,91,0,13,4,0,10,113,364,569,734,497,321,46,8,3,0,1,14,43,235,571,684,459,238,20,0,0,687,600,300,162,11,0,0,0,1,58,354,336,681,642,371,61,14,0,0,0,0,123,508,572,587,496,279,113,3,0,0,0,0,89,424,670
"CLAYTON, NM",223,88415,36.45,-103.17,0,917,0,878,0,642,4,394,62,138,212,29,355,0,270,1,137,24,6,289,0,635,0,844,88415,36.45,-103.17,0,0,1,4,39,266,300,321,193,13,0,0,0,0,0,5,123,247,403,265,184,4,0,0,0,0,0,3,23,124,361,223,34,0,0,0,923,976,583,436,195,8,0,2,20,252,469,683,884,908,664,339,141,34,0,1,15,292,760,917,943,750,680,407,78,45,0,0,38,323,676,931
"CLOVIS, NM",224,88101,34.41,-103.2,0,822,0,751,0,533,14,277,117,60,337,6,473,0,338,0,181,4,13,202,1,550,2,718,88101,34.41,-103.2,0,0,0,10,94,361,311,335,207,25,0,7,0,0,0,32,191,393,617,350,218,13,3,0,0,0,0,1,65,256,490,328,118,0,0,0,862,802,520,327,86,3,0,0,11,180,452,573,806,815,568,213,64,5,0,0,0,225,658,771,798,637,511,291,30,10,0,0,1,200,539,809
"GALLUP, NM",225,87301,35.52,-108.73,0,979,0,917,0,814,0,505,4,222,117,46,293,0,153,0,44,80,0,486,0,817,0,948,87301,35.52,-108.73,0,0,0,0,2,163,283,177,55,0,0,0,0,0,0,0,9,157,260,178,76,0,0,0,0,0,0,0,0,30,337,104,2,0,0,0,1153,879,838,489,221,9,0,0,78,478,685,926,1031,956,794,484,181,16,0,1,39,471,907,791,752,916,809,543,264,112,0,0,122,508,858,1128
"ROSWELL, NM",226,88203,33.33,-104.52,0,677,0,573,6,313,67,105,291,5,526,0,607,0,473,0,308,1,49,101,3,443,0,608,88203,33.33,-104.52,0,0,3,54,254,505,444,474,351,85,0,1,0,0,10,105,360,528,660,506,356,50,9,0,0,0,6,42,258,545,718,439,218,13,0,0,697,565,298,144,8,0,0,0,3,61,333,442,729,645,366,55,8,0,0,0,0,124,525,639,604,510,276,116,0,0,0,0,0,117,472,742
"ELKO, NV",227,89801,40.95,-115.79,0,1139,0,997,0,862,0,596,3,328,114,73,368,0,144,7,55,134,0,474,1,932,0,1193,89801,40.95,-115.79,0,0,0,0,0,218,418,179,47,0,0,0,0,0,0,0,5,102,381,165,118,0,3,0,0,0,0,0,5,21,306,88,0,0,0,0,1037,873,827,560,327,20,0,13,116,505,726,1145,1122,941,756,628,419,89,0,4,84,351,1161,1228,1258,1176,1003,599,237,110,0,3,203,565,910,1206
"ELY, NV",228,89301,39.42,-115.0,0,1248,0,1093,0,982,0,675,0,441,53,150,296,0,87,21,31,178,0,594,0,904,0,1211,89301,39.42,-115.0,0,0,0,0,0,107,220,91,22,0,0,0,0,0,0,0,0,52,239,128,72,0,0,0,0,0,0,0,0,0,429,41,0,0,0,0,1131,998,926,662,414,45,0,40,158,618,726,1184,1211,1019,818,667,502,145,0,7,129,562,1042,1237,1401,1261,1201,695,406,259,1,15,246,603,943,1212
"LAS VEGAS, NV",229,89101,36.17,-115.12,0,496,0,347,20,231,188,34,419,5,696,0,941,0,816,0,600,0,182,31,20,254,0,504,89101,36.17,-115.12,0,0,7,208,441,826,931,872,642,124,54,0,0,0,49,186,408,726,882,813,656,289,6,0,0,0,3,170,408,536,1011,764,503,132,0,0,471,286,228,8,7,0,0,0,0,38,93,466,463,326,142,25,6,0,0,0,0,39,379,493,553,430,322,70,2,0,0,0,0,15,291,552
"LOVELOCK, NV",230,89419,40.32,-118.2,0,687,0,580,10,335,95,92,343,12,720,0,1035,0,732,0,450,30,151,192,4,567,0,883,89419,40.32,-118.2,0,0,1,101,361,916,1174,929,621,181,12,0,0,0,28,51,274,673,1075,1057,716,271,0,0,0,0,0,134,393,572,857,209,13,0,0,0,685,456,333,43,10,0,0,0,0,20,271,711,647,522,236,91,23,0,0,0,0,101,594,816,728,761,437,142,2,0,0,0,89,455,837,1121
"RENO, NV",231,89501,39.52,-119.81,0,899,0,737,0,651,3,374,37,184,199,26,496,0,305,0,128,54,3,327,0,672,0,910,89501,39.52,-119.81,0,0,0,3,32,329,528,325,144,1,0,0,0,0,0,0,35,189,474,434,227,7,0,0,0,0,0,6,45,78,487,157,12,0,0,0,824,688,660,337,145,19,0,1,41,380,505,868,837,715,490,401,226,31,0,0,39,202,792,890,1035,809,804,385,180,28,0,0,81,399,718,972
"TONOPAH, NV",232,89049,38.36,-116.26,0,945,0,807,0,747,13,403,123,141,244,24,482,0,304,1,111,40,0,369,0,707,0,1041,89049,38.36,-116.26,0,0,0,2,30,311,445,322,130,0,0,0,0,0,0,0,45,358,582,359,171,0,0,0,0,0,0,37,293,62,419,231,33,0,0,0,943,755,766,371,164,11,0,3,39,445,532,1043,885,792,605,393,234,22,0,0,31,288,837,1073,1006,873,869,445,24,39,0,0,49,373,752,1007
"WINNEMUCCA, NV",233,89445,41.12,-118.05,0,930,0,762,0,794,0,533,8,281,153,62,474,0,250,2,64,110,1,429,0,799,0,1024,89445,41.12,-118.05,0,0,0,0,6,307,481,234,51,0,0,0,0,0,0,0,4,127,382,357,138,4,0,0,0,0,0,0,13,25,558,160,3,0,0,0,878,804,800,490,259,20,0,5,99,464,674,1079,978,870,676,588,357,83,0,0,91,325,900,903,934,611,905,520,226,82,0,0,141,499,824,1090
"ALBANY, NY",234,12210,42.66,-73.76,0,1229,0,1047,0,872,7,485,45,224,126,41,255,8,209,2,34,119,1,384,3,734,0,1027,12210,42.66,-73.76,0,0,0,0,28,151,109,191,38,1,0,0,0,0,0,0,83,101,319,328,63,3,8,0,0,0,0,22,23,125,337,109,0,0,0,0,1286,1152,887,547,321,52,24,6,114,253,783,895,1406,1055,859,515,137,19,0,0,98,396,629,1024,996,934,870,392,215,51,0,0,146,503,790,1162
"BINGHAMTON, NY",235,13905,42.17,-75.94,0,1252,0,1081,0,941,8,561,28,276,84,68,166,11,144,7,45,156,1,443,1,796,0,1087,13905,42.17,-75.94,0,0,0,2,31,140,115,189,116,3,0,0,0,0,0,0,35,41,164,184,19,0,2,0,0,0,0,22,19,72,218,58,0,0,0,0,1255,1167,906,591,335,55,23,13,105,311,854,957,1463,1116,933,646,207,82,8,5,180,497,717,1135,1037,960,985,446,286,68,1,3,182,520,817,1169
"BUFFALO, NY",236,14201,42.9,-78.89,0,1145,0,1021,0,834,3,522,45,248,133,37,220,2,237,0,49,81,14,348,2,694,0,975,14201,42.9,-78.89,0,0,0,5,42,206,197,333,81,41,0,0,0,0,0,0,67,92,212,239,62,0,5,0,0,0,0,5,25,102,251,138,4,0,0,0,1102,1123,762,503,280,17,6,0,38,216,687,827,1339,1026,818,587,176,47,0,0,108,391,657,1010,995,914,921,477,287,47,0,0,98,436,739,1087
"GLENS FALLS, NY",237,12801,43.31,-73.64,0,1113,0,893,1,655,37,236,188,46,379,0,554,0,377,0,151,67,50,255,12,613,0,958,12801,43.31,-73.64,0,0,2,14,125,393,395,450,204,115,0,0,0,0,0,16,276,376,629,593,248,36,36,0,0,0,0,81,163,368,637,88,0,0,0,0,1170,998,671,283,96,0,0,0,10,79,567,758,1290,901,641,253,8,0,0,0,13,141,441,887,880,780,652,173,33,0,0,1,178,546,832,1230
"MASSENA, NY",238,13662,44.92,-74.89,0,1517,0,1327,0,1065,0,585,21,301,85,75,144,20,143,10,7,173,0,482,1,850,0,1223,13662,44.92,-74.89,0,0,0,0,29,135,90,211,10,0,0,0,0,0,0,0,28,42,147,138,11,0,4,0,0,0,0,0,7,78,196,80,0,0,0,0,1437,1366,1023,549,336,45,43,13,137,365,898,1171,1825,1362,1081,644,233,75,10,14,192,528,777,1160,1288,1254,1091,561,335,105,8,4,189,554,876,1338
"NEW YORK, NY",239,10028,40.78,-73.95,0,859,0,760,1,623,12,321,72,111,245,3,454,0,427,0,186,10,26,169,3,472,0,756,10028,40.78,-73.95,0,0,2,3,86,324,397,447,241,70,0,0,0,0,0,0,81,222,480,492,201,7,9,0,0,0,0,34,48,190,485,343,115,0,0,0,868,835,613,317,132,0,1,0,4,79,487,625,1038,767,625,375,100,2,0,0,22,207,411,805,670,678,631,270,100,8,0,0,3,222,518,838
"ROCHESTER, NY",240,14619,43.14,-77.65,0,1182,0,1056,0,862,3,514,37,263,126,41,192,4,214,1,29,97,5,381,2,709,0,997,14619,43.14,-77.65,0,0,0,1,39,196,149,278,37,16,0,0,0,0,0,2,60,100,207,234,49,0,5,0,0,0,0,7,12,83,221,129,1,0,0,0,1143,1152,799,534,293,24,10,2,59,244,726,876,1409,1094,858,557,198,41,2,0,121,451,653,1020,994,922,928,452,298,59,0,0,110,447,749,1096
"SYRACUSE, NY",241,13203,43.06,-76.13,0,1198,0,1033,0,872,9,491,49,222,142,35,272,1,249,0,51,86,9,350,2,689,0,992,13203,43.06,-76.13,0,0,0,0,57,248,234,323,68,28,0,0,0,0,0,1,61,68,282,292,79,0,7,0,0,0,0,25,28,111,300,133,5,0,0,0,1169,1113,823,473,241,20,3,0,38,205,712,842,1415,1051,862,583,171,44,0,0,109,389,603,1013,1011,934,931,417,254,42,0,0,112,456,753,1122
"UTICA, NY",242,13501,43.1,-75.23,0,969,0,814,4,610,54,237,221,35,438,0,584,0,447,0,195,52,68,243,9,575,0,881,13501,43.1,-75.23,0,0,8,39,219,559,548,629,312,168,0,0,0,0,4,26,262,355,599,598,274,35,28,0,0,0,0,98,182,400,606,113,0,0,0,0,940,894,565,212,44,0,0,0,0,77,511,649,1186,832,600,308,13,0,0,0,22,156,423,820,782,715,665,190,49,0,0,0,134,495,790,1175
"WATERTOWN, NY",243,13601,43.97,-75.91,0,1380,0,1214,0,991,0,578,21,321,98,80,172,15,157,7,17,157,4,429,2,777,0,1096,13601,43.97,-75.91,0,0,0,0,26,145,99,222,22,12,0,0,0,0,0,0,34,81,228,183,30,0,5,0,0,0,0,0,2,68,188,65,0,0,0,0,1320,1309,938,578,360,64,31,8,126,279,788,995,1660,1230,984,632,229,83,8,8,160,479,722,1067,1159,1102,1050,523,373,94,6,4,184,529,822,1227
"AKRON, OH",244,44302,41.09,-81.54,0,1069,0,927,0,710,18,438,63,188,171,27,273,0,265,0,85,66,25,312,1,676,0,928,44302,41.09,-81.54,0,0,0,22,76,244,256,345,122,74,0,0,0,0,0,17,94,194,309,281,120,0,4,0,0,0,0,15,20,76,253,170,14,0,0,0,1055,1091,650,412,248,9,0,0,39,176,716,763,1278,965,686,497,98,13,0,0,86,350,596,958,873,726,793,404,218,58,0,0,72,411,715,1062
"CINCINNATI, OH",245,45219,39.13,-84.51,0,983,0,825,0,569,13,356,89,116,243,4,353,0,334,0,142,31,23,248,1,623,0,830,45219,39.13,-84.51,0,0,0,16,83,270,334,385,180,66,0,0,0,0,0,13,122,276,384,315,150,3,2,0,0,0,0,9,62,182,340,302,95,0,0,0,980,996,516,346,179,5,0,0,25,168,683,631,1149,849,534,395,56,0,0,0,55,294,583,918,820,631,656,326,112,7,0,0,12,283,603,941
"CLEVELAND, OH",246,44102,41.48,-81.74,0,1071,0,954,0,718,14,459,63,212,175,21,256,0,241,0,80,63,21,308,2,663,0,915,44102,41.48,-81.74,0,0,0,14,71,233,236,308,124,63,0,0,0,0,0,14,100,192,267,246,103,0,5,0,0,0,0,15,18,101,266,169,13,0,0,0,1052,1124,646,447,272,15,0,0,44,192,709,757,1279,984,727,521,136,11,0,0,82,341,593,943,883,753,780,408,229,36,0,0,62,392,687,1046
"COLUMBUS, OH",247,43201,39.98,-82.98,0,1034,0,884,0,627,12,391,82,140,225,7,329,0,305,0,121,40,27,271,2,643,0,880,43201,39.98,-82.98,0,0,0,16,86,282,318,367,147,79,0,0,0,0,0,13,94,248,331,279,138,1,5,0,0,0,0,7,67,146,337,270,77,0,0,0,1019,1058,565,374,219,3,0,0,32,165,698,717,1227,916,617,455,63,2,0,0,68,335,597,957,856,679,699,345,138,16,0,0,21,312,635,966
"DAYTON, OH",248,45410,39.75,-84.16,0,1032,0,900,0,622,15,382,87,142,229,6,333,0,301,0,121,43,22,277,0,658,0,904,45410,39.75,-84.16,0,0,0,20,87,280,322,369,162,66,0,0,0,0,0,13,115,254,332,302,156,1,1,0,0,0,0,11,60,153,344,231,46,0,0,0,1019,1094,575,356,213,6,0,0,30,166,707,705,1227,925,602,437,76,0,0,0,69,314,591,967,849,682,690,353,137,12,0,0,31,352,677,1040
"FINDLAY, OH",249,45840,41.04,-83.64,0,1072,0,971,0,679,14,410,86,158,245,10,326,0,254,1,94,54,25,300,0,676,0,935,45840,41.04,-83.64,0,0,0,19,90,291,301,335,132,73,0,0,0,0,0,11,125,287,356,263,129,2,0,0,0,0,0,13,43,157,321,165,20,0,0,0,1035,1154,614,374,219,6,0,0,38,175,703,751,1285,982,658,471,88,0,0,2,70,331,603,971,896,777,765,386,167,24,0,0,54,394,722,1083
"LANCASTER, OH",250,43130,39.72,-82.59,0,1041,0,900,0,657,7,424,53,162,212,16,296,0,247,0,82,61,19,324,1,685,0,900,43130,39.72,-82.59,0,0,0,5,62,248,248,332,121,58,0,0,0,0,0,8,63,285,357,213,90,0,4,0,0,0,0,7,33,102,283,197,34,0,0,0,1032,1096,623,418,235,15,0,0,43,174,730,712,1235,913,634,478,80,8,0,0,96,423,642,966,855,692,715,376,172,25,0,0,43,374,682,1023
"MANSFIELD, OH",251,44902,40.76,-82.52,0,904,0,768,2,477,51,239,210,63,407,0,525,0,392,0,211,31,81,198,7,565,0,836,44902,40.76,-82.52,0,0,6,59,182,468,518,563,326,201,0,0,0,0,1,40,251,435,531,475,296,42,20,0,0,0,0,53,196,319,527,139,11,0,0,0,889,942,419,226,111,0,0,0,1,47,525,591,1097,800,466,291,16,0,0,0,16,136,439,831,726,563,547,200,63,0,0,0,75,411,731,1086
"TOLEDO, OH",252,43620,41.67,-83.55,0,1103,0,1004,0,703,15,434,85,166,228,9,320,0,286,0,103,54,23,313,0,672,0,955,43620,41.67,-83.55,0,0,0,15,85,288,324,365,145,70,0,0,0,0,0,15,136,242,300,307,142,0,0,0,0,0,0,15,35,153,337,187,22,0,0,0,1054,1193,626,396,229,10,0,0,33,203,676,796,1335,1010,708,499,100,2,0,1,71,336,607,962,921,809,775,407,170,14,0,0,59,401,732,1107
"YOUNGSTOWN, OH",253,44504,41.12,-80.65,0,1102,0,955,0,748,18,473,46,228,143,47,218,2,197,1,52,89,14,361,1,702,0,961,44504,41.12,-80.65,0,0,0,17,62,206,199,266,73,41,0,0,0,0,0,16,59,137,221,211,78,0,4,0,0,0,0,20,17,87,235,113,4,0,0,0,1059,1101,661,463,295,36,7,0,62,222,747,804,1332,990,748,534,158,42,0,2,108,426,635,1006,916,774,834,423,231,63,0,0,98,435,724,1073
"GAGE, OK",254,73843,36.31,-99.75,0,539,5,509,55,195,209,49,440,7,749,0,915,0,757,0,527,0,200,67,43,358,6,606,73843,36.31,-99.75,0,2,61,186,362,806,893,900,730,307,57,18,0,5,61,224,461,804,996,924,676,293,71,1,0,7,43,218,498,636,855,446,174,0,0,0,480,675,115,76,7,0,0,0,0,7,148,328,599,492,231,33,14,0,0,0,0,11,325,567,537,359,240,39,0,0,0,0,0,183,601,922
"HOBART, OK",255,73651,35.02,-99.09,0,756,0,754,7,418,64,185,216,36,448,0,634,0,570,0,358,0,84,98,4,446,3,657,73651,35.02,-99.09,0,0,7,53,135,411,508,552,424,145,3,10,0,0,8,101,311,534,789,623,376,82,9,0,0,0,5,39,201,400,606,534,273,24,0,0,752,945,324,188,50,0,0,0,1,75,367,448,840,728,454,150,46,0,0,0,0,125,499,742,675,590,475,217,11,0,0,0,0,93,473,782
"MCALESTER, OK",256,74501,34.92,-95.76,0,697,0,657,17,337,49,170,190,35,421,0,597,0,552,0,339,0,70,96,7,418,8,569,74501,34.92,-95.76,0,0,13,36,120,386,520,543,364,106,5,24,0,0,21,74,258,469,730,580,371,78,16,0,1,1,16,36,191,409,542,532,282,25,0,0,696,865,261,192,47,0,0,0,0,91,379,345,771,635,381,133,25,0,0,0,0,128,477,661,624,470,369,186,33,0,0,0,0,70,399,701
"OKLAHOMA CITY, OK",257,73119,35.42,-97.57,0,783,0,764,4,420,38,208,157,49,375,1,541,2,521,0,304,0,54,109,4,482,3,664,73119,35.42,-97.57,0,0,5,19,80,345,475,496,345,81,0,8,0,0,3,70,235,418,646,558,317,64,13,0,0,0,5,26,155,362,501,509,251,17,0,0,799,965,338,241,57,2,0,0,0,87,413,443,861,744,456,160,64,0,0,0,0,139,558,762,688,584,465,224,26,0,6,0,0,102,474,787
"PONCA CITY, OK",258,74601,36.7,-97.15,0,507,5,503,78,131,238,24,496,0,784,0,931,0,827,0,563,0,244,46,44,325,10,560,74601,36.7,-97.15,0,1,89,210,401,787,877,961,735,363,46,30,0,3,85,261,533,810,1005,991,714,354,86,0,0,10,59,242,553,756,911,529,239,14,0,0,481,681,57,40,0,0,0,0,0,0,142,254,587,493,177,18,0,0,0,0,0,17,310,565,453,335,159,15,0,0,0,0,0,121,523,860
"TULSA, OK",259,74104,36.15,-95.95,0,777,0,730,7,396,42,186,185,49,440,0,586,0,577,0,351,0,67,102,4,451,3,647,74104,36.15,-95.95,0,0,5,34,121,430,517,591,436,110,0,8,0,1,6,49,243,468,677,597,353,67,11,0,0,0,9,44,190,423,565,542,264,23,0,0,765,937,301,191,57,1,0,0,0,91,395,404,848,696,424,179,57,0,0,0,0,128,500,756,717,556,464,189,34,0,0,0,0,88,457,782
"ASTORIA, OR",260,97103,46.12,-123.67,0,640,0,617,0,639,0,514,4,346,14,201,2,94,10,98,3,163,1,348,0,553,0,708,97103,46.12,-123.67,0,0,0,0,0,29,0,7,4,0,0,0,0,0,0,0,0,12,6,23,4,3,0,0,0,0,0,0,13,0,0,0,0,0,0,0,657,628,663,474,361,162,123,131,182,383,477,738,616,573,595,541,420,210,79,42,115,281,636,706,648,649,659,526,256,232,80,121,193,381,547,680
"BAKER CITY, OR",261,97814,44.83,-117.76,0,1126,0,1040,0,846,0,682,1,400,58,145,206,2,113,32,14,221,0,547,0,939,0,1208,97814,44.83,-117.76,0,0,0,0,1,114,223,101,11,0,0,0,0,0,0,0,0,45,236,187,32,0,0,0,0,0,0,0,2,14,160,52,0,0,0,0,962,939,760,593,408,84,2,82,273,546,817,1171,1285,1168,773,775,513,202,2,6,161,527,1094,1256,1132,1014,1004,679,280,149,3,9,229,569,907,1197
"BURNS, OR",262,97720,43.59,-118.89,0,1192,0,995,0,925,0,681,4,370,65,141,249,1,145,34,24,227,0,552,0,987,0,1270,97720,43.59,-118.89,0,0,0,0,2,152,307,151,12,0,0,0,0,0,0,0,0,23,238,264,60,0,0,0,0,0,0,0,10,20,203,21,0,0,0,0,1080,939,846,605,373,80,0,63,247,544,770,1162,1187,901,738,769,495,192,2,0,139,478,1229,1409,1309,1146,1191,668,243,152,0,38,296,633,962,1240
"EUGENE, OR",263,97401,44.06,-123.08,0,682,0,638,0,582,2,429,16,240,82,76,208,2,160,5,36,58,2,313,0,597,0,750,97401,44.06,-123.08,0,0,0,0,4,150,215,212,43,0,0,0,0,0,0,0,0,35,207,220,66,5,0,0,0,0,0,5,43,60,201,47,0,0,0,0,625,596,598,359,241,69,0,15,49,349,470,715,708,624,481,504,325,96,5,0,34,207,717,749,712,694,666,423,155,62,0,0,92,382,605,785
"MEDFORD, OR",264,97504,42.33,-122.79,0,696,0,621,0,553,7,359,56,156,221,44,455,0,352,0,138,21,27,251,0,607,0,793,97504,42.33,-122.79,0,0,0,3,49,325,494,358,147,7,0,0,0,0,0,0,13,149,435,453,212,74,0,0,0,0,0,19,106,188,437,244,56,0,0,0,688,602,524,253,105,41,0,0,33,299,524,796,683,590,448,450,241,61,0,0,9,153,669,753,716,670,687,375,122,31,0,0,22,301,628,831
"NORTH BEND, OR",265,97459,43.48,-124.16,2,274,1,278,10,226,41,125,153,29,306,6,453,9,340,47,251,62,117,115,14,311,3,417,97459,43.48,-124.16,4,0,0,66,137,390,488,498,357,106,40,4,0,4,29,3,81,220,407,521,395,244,2,6,1,0,0,55,241,308,463,0,0,0,0,0,214,235,233,82,25,0,0,0,0,16,133,322,311,267,145,164,57,18,23,0,0,7,342,350,298,333,301,130,4,1,5,140,185,322,458,578
"PENDLETON, OR",266,97801,45.73,-118.79,0,846,0,789,0,609,1,480,27,211,166,48,386,0,309,4,63,57,6,325,0,726,0,978,97801,45.73,-118.79,0,0,0,0,6,285,407,276,56,0,0,0,0,0,0,0,2,76,394,427,106,17,0,0,0,0,0,2,72,138,357,223,27,0,0,0,779,833,592,409,206,56,1,11,82,379,602,927,961,755,547,575,307,49,0,0,23,204,866,1046,798,778,687,456,120,39,0,0,67,392,709,962
"PORTLAND, OR",267,97209,45.53,-122.68,0,667,0,626,0,535,5,378,37,169,131,47,269,0,232,3,88,33,15,259,0,541,0,763,97209,45.53,-122.68,0,0,0,1,18,220,257,253,96,0,0,0,0,0,0,0,0,77,282,329,153,45,0,0,0,0,0,14,93,97,269,113,15,0,0,0,617,639,542,281,161,39,0,10,40,303,429,727,718,586,462,451,244,61,0,0,7,148,624,797,666,653,600,403,103,42,0,0,52,327,569,765
"REDMOND, OR",268,97756,44.26,-121.22,0,658,0,615,0,434,14,302,100,75,351,8,644,2,442,1,208,59,64,220,0,640,0,889,97756,44.26,-121.22,0,0,0,17,77,481,699,555,257,32,0,0,0,0,0,0,33,231,597,717,366,159,0,0,0,0,0,24,191,340,635,54,0,0,0,0,592,659,417,235,67,12,0,0,0,127,440,776,772,581,372,384,128,11,6,0,0,62,704,891,611,604,512,287,29,1,0,4,176,470,775,1001
"SALEM, OR",269,97301,44.95,-123.0,0,677,0,637,0,590,3,426,25,202,108,69,271,1,189,3,60,48,6,294,0,574,0,733,97301,44.95,-123.0,0,0,0,1,17,200,269,252,75,0,0,0,0,0,0,0,3,58,262,249,99,18,0,0,0,0,0,8,55,65,283,67,5,0,0,0,656,633,622,334,176,58,0,9,40,327,444,693,699,590,473,488,287,81,2,0,20,185,689,740,677,687,675,456,142,68,0,0,85,371,588,765
"ALLENTOWN, PA",270,18102,40.61,-75.48,0,1031,0,906,0,732,6,408,40,175,148,22,323,0,291,1,64,60,4,333,1,679,0,936,18102,40.61,-75.48,0,0,0,6,57,230,282,323,86,12,0,0,0,0,0,0,57,118,354,343,89,0,4,0,0,0,0,13,5,95,334,207,18,0,0,0,1046,1004,705,407,200,18,1,3,38,185,738,802,1228,909,726,473,125,19,0,0,85,420,615,991,820,804,766,343,200,29,0,0,58,395,683,1016
