{
  "lastUpdated": "2026-04-13T21:21:58.853Z",
  "totalStations": 360,
  "resolvedCount": 360,
  "unresolvedCount": 0,
  "stations": {
    "0": {
      "id": 0,
      "city": "ANCHORAGE, AK",
      "zip": "99504",
      "lat": 61.2,
      "lon": -149.75,
      "nceiStationId": "USW00026409",
      "nceiStationName": "ANCHORAGE MERRILL FIELD, AK US",
      "nceiLat": 61.2163,
      "nceiLon": -149.85724,
      "distanceKm": 6.02,
      "tmaxDateRange": "1916-02-01 to 2026-04-10",
      "noMatchFound": false
    },
    "1": {
      "id": 1,
      "city": "BARROW, AK",
      "zip": "99723",
      "lat": 71.28,
      "lon": -156.78,
      "nceiStationId": "USW00027502",
      "nceiStationName": "BARROW AIRPORT, AK US",
      "nceiLat": 71.28703,
      "nceiLon": -156.73938,
      "distanceKm": 1.65,
      "tmaxDateRange": "1901-09-01 to 2026-04-10",
      "noMatchFound": false
    },
    "2": {
      "id": 2,
      "city": "BETHEL, AK",
      "zip": "99559",
      "lat": 60.81,
      "lon": -161.85,
      "nceiStationId": "USW00026615",
      "nceiStationName": "BETHEL AIRPORT, AK US",
      "nceiLat": 60.78497,
      "nceiLon": -161.82931,
      "distanceKm": 3,
      "tmaxDateRange": "1923-08-01 to 2026-04-10",
      "noMatchFound": false
    },
    "3": {
      "id": 3,
      "city": "BETTLES FIELD, AK",
      "zip": "99726",
      "lat": 67.24,
      "lon": -152.27,
      "nceiStationId": "USR0000APAM",
      "nceiStationName": "PAMICHTUK LAKE ALASKA, AK US",
      "nceiLat": 67.7719,
      "nceiLon": -152.195,
      "distanceKm": 59.23,
      "tmaxDateRange": "2012-09-04 to 2026-04-03",
      "noMatchFound": false
    },
    "4": {
      "id": 4,
      "city": "COLD BAY, AK",
      "zip": "99571",
      "lat": 55.22,
      "lon": -162.78,
      "nceiStationId": "USW00025624",
      "nceiStationName": "COLD BAY AIRPORT, AK US",
      "nceiLat": 55.22068,
      "nceiLon": -162.7323,
      "distanceKm": 3.03,
      "tmaxDateRange": "1950-03-02 to 2026-04-10",
      "noMatchFound": false
    },
    "5": {
      "id": 5,
      "city": "COPPER CENTER, AK",
      "zip": "99573",
      "lat": 61.68,
      "lon": -145.14,
      "nceiStationId": "USW00026425",
      "nceiStationName": "GULKANA AIRPORT, AK US",
      "nceiLat": 62.15914,
      "nceiLon": -145.45885,
      "distanceKm": 55.83,
      "tmaxDateRange": "1909-02-08 to 2026-04-10",
      "noMatchFound": false
    },
    "6": {
      "id": 6,
      "city": "CORDOVA, AK",
      "zip": "99574",
      "lat": 60.79,
      "lon": -145.61,
      "nceiStationId": "USW00026410",
      "nceiStationName": "CORDOVA AIRPORT, AK US",
      "nceiLat": 60.48604,
      "nceiLon": -145.4445,
      "distanceKm": 34.98,
      "tmaxDateRange": "1909-05-07 to 2026-04-10",
      "noMatchFound": false
    },
    "7": {
      "id": 7,
      "city": "DELTA JUNCTION, AK",
      "zip": "99737",
      "lat": 63.7,
      "lon": -144.89,
      "nceiStationId": "USC00502568",
      "nceiStationName": "DRY CREEK, AK US",
      "nceiLat": 63.67459,
      "nceiLon": -144.60409,
      "distanceKm": 14.37,
      "tmaxDateRange": "1996-08-01 to 2026-04-09",
      "noMatchFound": false
    },
    "8": {
      "id": 8,
      "city": "FAIRBANKS, AK",
      "zip": "99709",
      "lat": 64.9,
      "lon": -148.16,
      "nceiStationId": "USC00504621",
      "nceiStationName": "KEYSTONE RIDGE, AK US",
      "nceiLat": 64.9156,
      "nceiLon": -148.2711,
      "distanceKm": 5.52,
      "tmaxDateRange": "1996-08-01 to 2026-03-13",
      "noMatchFound": false
    },
    "9": {
      "id": 9,
      "city": "HOMER, AK",
      "zip": "99603",
      "lat": 59.4,
      "lon": -151.32,
      "nceiStationId": "USW00025507",
      "nceiStationName": "HOMER AIRPORT, AK US",
      "nceiLat": 59.64196,
      "nceiLon": -151.49098,
      "distanceKm": 28.58,
      "tmaxDateRange": "1932-09-01 to 2026-04-10",
      "noMatchFound": false
    },
    "10": {
      "id": 10,
      "city": "JUNEAU, AK",
      "zip": "99801",
      "lat": 58.58,
      "lon": -134.77,
      "nceiStationId": "USW00025309",
      "nceiStationName": "JUNEAU AIRPORT, AK US",
      "nceiLat": 58.354,
      "nceiLon": -134.55606,
      "distanceKm": 28.04,
      "tmaxDateRange": "1936-09-01 to 2026-04-10",
      "noMatchFound": false
    },
    "11": {
      "id": 11,
      "city": "KENAI, AK",
      "zip": "99611",
      "lat": 60.66,
      "lon": -150.9,
      "nceiStationId": "USR0000ASWA",
      "nceiStationName": "SWANSON RIVER ALASKA, AK US",
      "nceiLat": 60.7278,
      "nceiLon": -150.8722,
      "distanceKm": 7.69,
      "tmaxDateRange": "1990-05-21 to 2026-04-03",
      "noMatchFound": false
    },
    "12": {
      "id": 12,
      "city": "KETCHIKAN, AK",
      "zip": "99901",
      "lat": 55.61,
      "lon": -131.58,
      "nceiStationId": "USW00025325",
      "nceiStationName": "KETCHIKAN AIRPORT, AK US",
      "nceiLat": 55.3586,
      "nceiLon": -131.72196,
      "distanceKm": 29.35,
      "tmaxDateRange": "1910-09-01 to 2026-04-10",
      "noMatchFound": false
    },
    "13": {
      "id": 13,
      "city": "KING SALMON, AK",
      "zip": "99613",
      "lat": 58.75,
      "lon": -156.54,
      "nceiStationId": "USW00025503",
      "nceiStationName": "KING SALMON AIRPORT, AK US",
      "nceiLat": 58.68294,
      "nceiLon": -156.65634,
      "distanceKm": 10.04,
      "tmaxDateRange": "1942-01-12 to 2026-04-10",
      "noMatchFound": false
    },
    "14": {
      "id": 14,
      "city": "KODIAK, AK",
      "zip": "99615",
      "lat": 57.79,
      "lon": -152.4,
      "nceiStationId": "USW00025501",
      "nceiStationName": "KODIAK AIRPORT, AK US",
      "nceiLat": 57.75071,
      "nceiLon": -152.4881,
      "distanceKm": 6.81,
      "tmaxDateRange": "1949-01-01 to 2026-04-10",
      "noMatchFound": false
    },
    "15": {
      "id": 15,
      "city": "KOTZEBUE, AK",
      "zip": "99752",
      "lat": 67.24,
      "lon": -161.19,
      "nceiStationId": "USW00000113",
      "nceiStationName": "ROBERT BOB CURTIS MEMORIAL AIRPORT, AK US",
      "nceiLat": 66.818,
      "nceiLon": -161.022,
      "distanceKm": 47.49,
      "tmaxDateRange": "2017-06-26 to 2026-04-09",
      "noMatchFound": false
    },
    "16": {
      "id": 16,
      "city": "MC GRATH, AK",
      "zip": "99627",
      "lat": 63.61,
      "lon": -154.78,
      "nceiStationId": "USW00026510",
      "nceiStationName": "MCGRATH AIRPORT, AK US",
      "nceiLat": 62.9574,
      "nceiLon": -155.61009,
      "distanceKm": 83.59,
      "tmaxDateRange": "1941-06-01 to 2026-04-10",
      "noMatchFound": false
    },
    "17": {
      "id": 17,
      "city": "NOME, AK",
      "zip": "99762",
      "lat": 64.71,
      "lon": -164.62,
      "nceiStationId": "USS0064P01S",
      "nceiStationName": "JOHNSON S CAMP, AK US",
      "nceiLat": 64.56,
      "nceiLon": -164.29,
      "distanceKm": 22.92,
      "tmaxDateRange": "2002-08-14 to 2026-04-10",
      "noMatchFound": false
    },
    "18": {
      "id": 18,
      "city": "NORTHWAY, AK",
      "zip": "99764",
      "lat": 63,
      "lon": -141.69,
      "nceiStationId": "USW00026412",
      "nceiStationName": "NORTHWAY AIRPORT, AK US",
      "nceiLat": 62.96148,
      "nceiLon": -141.93834,
      "distanceKm": 13.26,
      "tmaxDateRange": "1942-09-08 to 2026-04-10",
      "noMatchFound": false
    },
    "19": {
      "id": 19,
      "city": "SAINT PAUL ISLAND, AK",
      "zip": "99660",
      "lat": 57.18,
      "lon": -170.26,
      "nceiStationId": "USW00025713",
      "nceiStationName": "SAINT PAUL ISLAND AIRPORT, AK US",
      "nceiLat": 57.15505,
      "nceiLon": -170.22272,
      "distanceKm": 3.57,
      "tmaxDateRange": "1915-08-08 to 2026-04-10",
      "noMatchFound": false
    },
    "20": {
      "id": 20,
      "city": "SITKA, AK",
      "zip": "99835",
      "lat": 56.73,
      "lon": -135,
      "nceiStationId": "USW00025379",
      "nceiStationName": "SITKA 1 NE, AK US",
      "nceiLat": 57.0574,
      "nceiLon": -135.3266,
      "distanceKm": 41.46,
      "tmaxDateRange": "2005-08-16 to 2026-04-11",
      "noMatchFound": false
    },
    "21": {
      "id": 21,
      "city": "TALKEETNA, AK",
      "zip": "99676",
      "lat": 62.45,
      "lon": -149.79,
      "nceiStationId": "USW00026528",
      "nceiStationName": "TALKEETNA AIRPORT, AK US",
      "nceiLat": 62.31978,
      "nceiLon": -150.09744,
      "distanceKm": 21.47,
      "tmaxDateRange": "1918-06-18 to 2026-04-08",
      "noMatchFound": false
    },
    "22": {
      "id": 22,
      "city": "UNALAKLEET, AK",
      "zip": "99684",
      "lat": 64.09,
      "lon": -160.36,
      "nceiStationId": "USW00026627",
      "nceiStationName": "UNALAKLEET FIELD, AK US",
      "nceiLat": 63.88333,
      "nceiLon": -160.8,
      "distanceKm": 31.44,
      "tmaxDateRange": "1941-09-01 to 2026-04-04",
      "noMatchFound": false
    },
    "23": {
      "id": 23,
      "city": "VALDEZ, AK",
      "zip": "99686",
      "lat": 61.15,
      "lon": -146.81,
      "nceiStationId": "USC00509687",
      "nceiStationName": "VALDEZ, AK US",
      "nceiLat": 61.1312,
      "nceiLon": -146.3822,
      "distanceKm": 23.05,
      "tmaxDateRange": "2012-10-01 to 2025-10-31",
      "noMatchFound": false
    },
    "24": {
      "id": 24,
      "city": "YAKUTAT, AK",
      "zip": "99689",
      "lat": 59.51,
      "lon": -139.71,
      "nceiStationId": "USW00025382",
      "nceiStationName": "YAKUTAT 3 SSE, AK US",
      "nceiLat": 59.5087,
      "nceiLon": -139.685,
      "distanceKm": 1.42,
      "tmaxDateRange": "2016-10-13 to 2026-01-06",
      "noMatchFound": false
    },
    "25": {
      "id": 25,
      "city": "BIRMINGHAM, AL",
      "zip": "35205",
      "lat": 33.49,
      "lon": -86.81,
      "nceiStationId": "USW00013876",
      "nceiStationName": "BIRMINGHAM AIRPORT, AL US",
      "nceiLat": 33.56545,
      "nceiLon": -86.7449,
      "distanceKm": 10.33,
      "tmaxDateRange": "1930-01-01 to 2026-04-10",
      "noMatchFound": false
    },
    "26": {
      "id": 26,
      "city": "HUNTSVILLE, AL",
      "zip": "35816",
      "lat": 34.74,
      "lon": -86.63,
      "nceiStationId": "USC00014977",
      "nceiStationName": "MADISON 2 N, AL US",
      "nceiLat": 34.72694,
      "nceiLon": -86.74556,
      "distanceKm": 10.66,
      "tmaxDateRange": "2021-11-01 to 2026-04-11",
      "noMatchFound": false
    },
    "27": {
      "id": 27,
      "city": "MOBILE, AL",
      "zip": "36604",
      "lat": 30.68,
      "lon": -88.07,
      "nceiStationId": "USW00013838",
      "nceiStationName": "MOBILE DOWNTOWN AIRPORT, AL US",
      "nceiLat": 30.61465,
      "nceiLon": -88.06301,
      "distanceKm": 7.3,
      "tmaxDateRange": "1948-03-09 to 2026-04-08",
      "noMatchFound": false
    },
    "28": {
      "id": 28,
      "city": "MONTGOMERY, AL",
      "zip": "36107",
      "lat": 32.38,
      "lon": -86.28,
      "nceiStationId": "USW00013821",
      "nceiStationName": "MAXWELL AFB, AL US",
      "nceiLat": 32.38333,
      "nceiLon": -86.35,
      "distanceKm": 6.58,
      "tmaxDateRange": "1948-06-01 to 2026-04-04",
      "noMatchFound": false
    },
    "29": {
      "id": 29,
      "city": "MUSCLE SHOALS, AL",
      "zip": "35661",
      "lat": 34.74,
      "lon": -87.64,
      "nceiStationId": "USW00063894",
      "nceiStationName": "MUSCLE SHOALS 2 N, AL US",
      "nceiLat": 34.7728,
      "nceiLon": -87.6399,
      "distanceKm": 3.65,
      "tmaxDateRange": "2007-04-26 to 2026-04-03",
      "noMatchFound": false
    },
    "30": {
      "id": 30,
      "city": "TUSCALOOSA, AL",
      "zip": "35404",
      "lat": 33.22,
      "lon": -87.48,
      "nceiStationId": "USW00073801",
      "nceiStationName": "NORTHPORT 2 S, AL US",
      "nceiLat": 33.216833,
      "nceiLon": -87.593139,
      "distanceKm": 10.53,
      "tmaxDateRange": "2009-05-22 to 2026-04-11",
      "noMatchFound": false
    },
    "31": {
      "id": 31,
      "city": "EL DORADO, AR",
      "zip": "71730",
      "lat": 33.21,
      "lon": -92.66,
      "nceiStationId": "USW00093992",
      "nceiStationName": "EL DORADO GOODWIN FIELD, AR US",
      "nceiLat": 33.22072,
      "nceiLon": -92.81404,
      "distanceKm": 14.38,
      "tmaxDateRange": "1892-01-01 to 2026-04-10",
      "noMatchFound": false
    },
    "32": {
      "id": 32,
      "city": "FAYETTEVILLE, AR",
      "zip": "72703",
      "lat": 36.12,
      "lon": -94.04,
      "nceiStationId": "USW00093993",
      "nceiStationName": "FAYETTEVILLE DRAKE FIELD, AR US",
      "nceiLat": 36.01027,
      "nceiLon": -94.16824,
      "distanceKm": 16.79,
      "tmaxDateRange": "1949-07-14 to 2026-04-10",
      "noMatchFound": false
    },
    "33": {
      "id": 33,
      "city": "FORT SMITH, AR",
      "zip": "72901",
      "lat": 35.37,
      "lon": -94.42,
      "nceiStationId": "USW00013964",
      "nceiStationName": "FORT SMITH REGIONAL AIRPORT, AR US",
      "nceiLat": 35.33346,
      "nceiLon": -94.36526,
      "distanceKm": 6.42,
      "tmaxDateRange": "1945-09-27 to 2026-04-10",
      "noMatchFound": false
    },
    "34": {
      "id": 34,
      "city": "HARRISON, AR",
      "zip": "72601",
      "lat": 36.24,
      "lon": -93.11,
      "nceiStationId": "USW00013971",
      "nceiStationName": "HARRISON BOONE CO AIRPORT, AR US",
      "nceiLat": 36.26727,
      "nceiLon": -93.15657,
      "distanceKm": 5.16,
      "tmaxDateRange": "1948-01-01 to 2026-04-10",
      "noMatchFound": false
    },
    "35": {
      "id": 35,
      "city": "LITTLE ROCK, AR",
      "zip": "72207",
      "lat": 34.77,
      "lon": -92.35,
      "nceiStationId": "USW00003952",
      "nceiStationName": "NORTH LITTLE ROCK WEATHER FORECAST OFFICE, AR US",
      "nceiLat": 34.8353,
      "nceiLon": -92.2596,
      "distanceKm": 10.99,
      "tmaxDateRange": "1976-11-01 to 2026-04-10",
      "noMatchFound": false
    },
    "36": {
      "id": 36,
      "city": "TEXARKANA, AR",
      "zip": "71854",
      "lat": 33.45,
      "lon": -94.01,
      "nceiStationId": "USW00013977",
      "nceiStationName": "TEXARKANA WEBB FIELD, AR US",
      "nceiLat": 33.45606,
      "nceiLon": -93.98777,
      "distanceKm": 2.17,
      "tmaxDateRange": "1892-02-01 to 2026-04-10",
      "noMatchFound": false
    },
    "37": {
      "id": 37,
      "city": "DOUGLAS, AZ",
      "zip": "85607",
      "lat": 31.54,
      "lon": -109.46,
      "nceiStationId": "USW00093026",
      "nceiStationName": "DOUGLAS BISBEE INTERNATIONAL AIRPORT, AZ US",
      "nceiLat": 31.4583,
      "nceiLon": -109.6061,
      "distanceKm": 16.57,
      "tmaxDateRange": "1948-07-02 to 2026-04-10",
      "noMatchFound": false
    },
    "38": {
      "id": 38,
      "city": "FLAGSTAFF, AZ",
      "zip": "86004",
      "lat": 35.29,
      "lon": -111.32,
      "nceiStationId": "USC00028910",
      "nceiStationName": "TWIN ARROWS, AZ US",
      "nceiLat": 35.16644,
      "nceiLon": -111.25926,
      "distanceKm": 14.81,
      "tmaxDateRange": "2017-05-10 to 2025-12-31",
      "noMatchFound": false
    },
    "39": {
      "id": 39,
      "city": "PHOENIX, AZ",
      "zip": "85033",
      "lat": 33.49,
      "lon": -112.21,
      "nceiStationId": "USC00029634",
      "nceiStationName": "YOUNGTOWN, AZ US",
      "nceiLat": 33.59434,
      "nceiLon": -112.30067,
      "distanceKm": 14.33,
      "tmaxDateRange": "1964-10-01 to 2026-04-06",
      "noMatchFound": false
    },
    "40": {
      "id": 40,
      "city": "TUCSON, AZ",
      "zip": "85719",
      "lat": 32.24,
      "lon": -110.95,
      "nceiStationId": "USW00023109",
      "nceiStationName": "DAVIS MONTHAN AFB, AZ US",
      "nceiLat": 32.16667,
      "nceiLon": -110.88333,
      "distanceKm": 10.29,
      "tmaxDateRange": "1949-01-01 to 2026-04-04",
      "noMatchFound": false
    },
    "41": {
      "id": 41,
      "city": "WINSLOW, AZ",
      "zip": "86047",
      "lat": 35.1,
      "lon": -110.64,
      "nceiStationId": "USW00023194",
      "nceiStationName": "WINSLOW AIRPORT, AZ US",
      "nceiLat": 35.02795,
      "nceiLon": -110.72206,
      "distanceKm": 10.95,
      "tmaxDateRange": "1898-10-01 to 2026-04-10",
      "noMatchFound": false
    },
    "42": {
      "id": 42,
      "city": "YUMA, AZ",
      "zip": "85364",
      "lat": 32.68,
      "lon": -114.66,
      "nceiStationId": "USW00003145",
      "nceiStationName": "YUMA MCAS, AZ US",
      "nceiLat": 32.65,
      "nceiLon": -114.61667,
      "distanceKm": 5.25,
      "tmaxDateRange": "1982-01-01 to 2026-04-10",
      "noMatchFound": false
    },
    "43": {
      "id": 43,
      "city": "BAKERSFIELD, CA",
      "zip": "93304",
      "lat": 35.33,
      "lon": -119.02,
      "nceiStationId": "USW00023155",
      "nceiStationName": "BAKERSFIELD AIRPORT, CA US",
      "nceiLat": 35.43424,
      "nceiLon": -119.05524,
      "distanceKm": 12.02,
      "tmaxDateRange": "1937-10-01 to 2026-04-10",
      "noMatchFound": false
    },
    "44": {
      "id": 44,
      "city": "BLYTHE, CA",
      "zip": "92225",
      "lat": 33.75,
      "lon": -114.51,
      "nceiStationId": "USW00023158",
      "nceiStationName": "BLYTHE ASOS, CA US",
      "nceiLat": 33.61876,
      "nceiLon": -114.71451,
      "distanceKm": 23.9,
      "tmaxDateRange": "1948-07-01 to 2026-04-10",
      "noMatchFound": false
    },
    "45": {
      "id": 45,
      "city": "EUREKA, CA",
      "zip": "95501",
      "lat": 40.8,
      "lon": -124.15,
      "nceiStationId": "USW00024213",
      "nceiStationName": "EUREKA WEATHER FORECAST OFFICE WOODLEY ISLAND, CA US",
      "nceiLat": 40.8097,
      "nceiLon": -124.1602,
      "distanceKm": 1.38,
      "tmaxDateRange": "1941-12-01 to 2026-04-10",
      "noMatchFound": false
    },
    "46": {
      "id": 46,
      "city": "FRESNO, CA",
      "zip": "93702",
      "lat": 36.74,
      "lon": -119.75,
      "nceiStationId": "USW00093193",
      "nceiStationName": "FRESNO YOSEMITE INTERNATIONAL, CA US",
      "nceiLat": 36.77999,
      "nceiLon": -119.72016,
      "distanceKm": 5.18,
      "tmaxDateRange": "1948-01-01 to 2026-04-10",
      "noMatchFound": false
    },
    "47": {
      "id": 47,
      "city": "IMPERIAL, CA",
      "zip": "91932",
      "lat": 32.57,
      "lon": -117.11,
      "nceiStationId": "USW00093115",
      "nceiStationName": "IMPERIAL BEACH REAM FIELD NAS, CA US",
      "nceiLat": 32.56797,
      "nceiLon": -117.11715,
      "distanceKm": 0.71,
      "tmaxDateRange": "1945-04-01 to 2026-04-04",
      "noMatchFound": false
    },
    "48": {
      "id": 48,
      "city": "LOS ANGELES, CA",
      "zip": "90057",
      "lat": 34.06,
      "lon": -118.27,
      "nceiStationId": "USW00093134",
      "nceiStationName": "LOS ANGELES DOWNTOWN USC, CA US",
      "nceiLat": 34.0236,
      "nceiLon": -118.2911,
      "distanceKm": 4.49,
      "tmaxDateRange": "1906-04-01 to 2026-04-10",
      "noMatchFound": false
    },
    "49": {
      "id": 49,
      "city": "MOUNT SHASTA, CA",
      "zip": "96067",
      "lat": 41.31,
      "lon": -122.32,
      "nceiStationId": "USW00024215",
      "nceiStationName": "MOUNT SHASTA, CA US",
      "nceiLat": 41.314893,
      "nceiLon": -122.317127,
      "distanceKm": 0.59,
      "tmaxDateRange": "1996-08-01 to 2026-04-10",
      "noMatchFound": false
    },
    "50": {
      "id": 50,
      "city": "PASO ROBLES, CA",
      "zip": "93446",
      "lat": 35.61,
      "lon": -120.76,
      "nceiStationId": "USW00093209",
      "nceiStationName": "PASO ROBLES MUNICIPAL AIRPORT, CA US",
      "nceiLat": 35.66936,
      "nceiLon": -120.62918,
      "distanceKm": 13.54,
      "tmaxDateRange": "1948-07-01 to 2026-04-06",
      "noMatchFound": false
    },
    "51": {
      "id": 51,
      "city": "RED BLUFF, CA",
      "zip": "96080",
      "lat": 40.13,
      "lon": -122.43,
      "nceiStationId": "USW00024216",
      "nceiStationName": "RED BLUFF MUNICIPAL AIRPORT, CA US",
      "nceiLat": 40.15186,
      "nceiLon": -122.25478,
      "distanceKm": 15.09,
      "tmaxDateRange": "1934-10-01 to 2026-04-10",
      "noMatchFound": false
    },
    "52": {
      "id": 52,
      "city": "REDDING, CA",
      "zip": "96002",
      "lat": 40.52,
      "lon": -122.32,
      "nceiStationId": "USW00024257",
      "nceiStationName": "REDDING AIRPORT, CA US",
      "nceiLat": 40.51462,
      "nceiLon": -122.29773,
      "distanceKm": 1.98,
      "tmaxDateRange": "1986-09-01 to 2026-04-10",
      "noMatchFound": false
    },
    "53": {
      "id": 53,
      "city": "SACRAMENTO, CA",
      "zip": "95842",
      "lat": 38.68,
      "lon": -121.34,
      "nceiStationId": "USW00023208",
      "nceiStationName": "SACRAMENTO MCCLELLAN AFB, CA US",
      "nceiLat": 38.66667,
      "nceiLon": -121.4,
      "distanceKm": 5.42,
      "tmaxDateRange": "1949-01-01 to 2026-04-05",
      "noMatchFound": false
    },
    "54": {
      "id": 54,
      "city": "SAN DIEGO, CA",
      "zip": "92105",
      "lat": 32.73,
      "lon": -117.08,
      "nceiStationId": "USW00023188",
      "nceiStationName": "SAN DIEGO INTERNATIONAL AIRPORT, CA US",
      "nceiLat": 32.7336,
      "nceiLon": -117.1831,
      "distanceKm": 9.65,
      "tmaxDateRange": "1939-07-01 to 2026-04-10",
      "noMatchFound": false
    },
    "55": {
      "id": 55,
      "city": "SAN FRANCISCO, CA",
      "zip": "94108",
      "lat": 37.79,
      "lon": -122.41,
      "nceiStationId": "USW00023272",
      "nceiStationName": "SAN FRANCISCO DOWNTOWN, CA US",
      "nceiLat": 37.7705,
      "nceiLon": -122.4269,
      "distanceKm": 2.63,
      "tmaxDateRange": "1921-01-01 to 2026-04-10",
      "noMatchFound": false
    },
    "56": {
      "id": 56,
      "city": "STOCKTON, CA",
      "zip": "95207",
      "lat": 38,
      "lon": -121.32,
      "nceiStationId": "USW00023237",
      "nceiStationName": "STOCKTON AIRPORT, CA US",
      "nceiLat": 37.88997,
      "nceiLon": -121.22637,
      "distanceKm": 14.73,
      "tmaxDateRange": "1948-10-01 to 2026-04-10",
      "noMatchFound": false
    },
    "57": {
      "id": 57,
      "city": "AKRON, CO",
      "zip": "80720",
      "lat": 40.16,
      "lon": -103.21,
      "nceiStationId": "USW00024015",
      "nceiStationName": "AKRON WASHINGTON CO AIRPORT, CO US",
      "nceiLat": 40.174306,
      "nceiLon": -103.214588,
      "distanceKm": 1.64,
      "tmaxDateRange": "1937-03-01 to 2026-04-10",
      "noMatchFound": false
    },
    "58": {
      "id": 58,
      "city": "ALAMOSA, CO",
      "zip": "81101",
      "lat": 37.46,
      "lon": -105.87,
      "nceiStationId": "USW00023061",
      "nceiStationName": "ALAMOSA BERGMAN FIELD, CO US",
      "nceiLat": 37.43931,
      "nceiLon": -105.8618,
      "distanceKm": 2.41,
      "tmaxDateRange": "1948-01-01 to 2026-04-10",
      "noMatchFound": false
    },
    "59": {
      "id": 59,
      "city": "COLORADO SPRINGS, CO",
      "zip": "80910",
      "lat": 38.81,
      "lon": -104.77,
      "nceiStationId": "USW00093037",
      "nceiStationName": "COLORADO SPRINGS MUNICIPAL AIRPORT, CO US",
      "nceiLat": 38.80949,
      "nceiLon": -104.68873,
      "distanceKm": 7.04,
      "tmaxDateRange": "1948-04-01 to 2026-04-10",
      "noMatchFound": false
    },
    "60": {
      "id": 60,
      "city": "DENVER, CO",
      "zip": "80203",
      "lat": 39.73,
      "lon": -104.98,
      "nceiStationId": "USW00023012",
      "nceiStationName": "DENVER LOWRY AFB, CO US",
      "nceiLat": 39.71667,
      "nceiLon": -104.9,
      "distanceKm": 7,
      "tmaxDateRange": "1949-01-01 to 2026-04-05",
      "noMatchFound": false
    },
    "61": {
      "id": 61,
      "city": "EAGLE, CO",
      "zip": "81631",
      "lat": 39.65,
      "lon": -106.82,
      "nceiStationId": "USW00023063",
      "nceiStationName": "EAGLE CO AIRPORT, CO US",
      "nceiLat": 39.65,
      "nceiLon": -106.91667,
      "distanceKm": 8.28,
      "tmaxDateRange": "1904-07-01 to 2026-04-04",
      "noMatchFound": false
    },
    "62": {
      "id": 62,
      "city": "GRAND JUNCTION, CO",
      "zip": "81501",
      "lat": 39.08,
      "lon": -108.55,
      "nceiStationId": "USW00023066",
      "nceiStationName": "GRAND JUNCTION WALKER FIELD, CO US",
      "nceiLat": 39.13437,
      "nceiLon": -108.54081,
      "distanceKm": 6.1,
      "tmaxDateRange": "1900-01-01 to 2026-04-10",
      "noMatchFound": false
    },
    "63": {
      "id": 63,
      "city": "LA JUNTA, CO",
      "zip": "81050",
      "lat": 37.98,
      "lon": -103.54,
      "nceiStationId": "USW00023067",
      "nceiStationName": "LA JUNTA MUNICIPAL AIRPORT, CO US",
      "nceiLat": 38.04948,
      "nceiLon": -103.51335,
      "distanceKm": 8.07,
      "tmaxDateRange": "1945-04-01 to 2026-04-10",
      "noMatchFound": false
    },
    "64": {
      "id": 64,
      "city": "PUEBLO, CO",
      "zip": "81003",
      "lat": 38.27,
      "lon": -104.62,
      "nceiStationId": "USW00093058",
      "nceiStationName": "PUEBLO MEMORIAL AIRPORT, CO US",
      "nceiLat": 38.28868,
      "nceiLon": -104.5057,
      "distanceKm": 10.19,
      "tmaxDateRange": "1954-06-16 to 2026-04-10",
      "noMatchFound": false
    },
    "65": {
      "id": 65,
      "city": "TRINIDAD, CO",
      "zip": "81082",
      "lat": 37.16,
      "lon": -104.5,
      "nceiStationId": "USC00058429",
      "nceiStationName": "TRINIDAD, CO US",
      "nceiLat": 37.1787,
      "nceiLon": -104.487,
      "distanceKm": 2.38,
      "tmaxDateRange": "1899-11-08 to 2026-04-09",
      "noMatchFound": false
    },
    "66": {
      "id": 66,
      "city": "BRIDGEPORT, CT",
      "zip": "06608",
      "lat": 41.19,
      "lon": -73.18,
      "nceiStationId": "USW00094702",
      "nceiStationName": "IGOR I SIKORSKY MEMORIAL AIRPORT, CT US",
      "nceiLat": 41.16424,
      "nceiLon": -73.12664,
      "distanceKm": 5.31,
      "tmaxDateRange": "1948-07-01 to 2026-04-10",
      "noMatchFound": false
    },
    "67": {
      "id": 67,
      "city": "HARTFORD, CT",
      "zip": "06106",
      "lat": 41.76,
      "lon": -72.68,
      "nceiStationId": "USW00014752",
      "nceiStationName": "HARTFORD BRAINARD AIRPORT, CT US",
      "nceiLat": 41.7352,
      "nceiLon": -72.65115,
      "distanceKm": 3.65,
      "tmaxDateRange": "1920-01-01 to 2026-04-10",
      "noMatchFound": false
    },
    "68": {
      "id": 68,
      "city": "WASHINGTON, DC",
      "zip": "20009",
      "lat": 38.92,
      "lon": -77.04,
      "nceiStationId": "USW00013743",
      "nceiStationName": "WASHINGTON REAGAN NATIONAL AIRPORT, VA US",
      "nceiLat": 38.84721,
      "nceiLon": -77.03454,
      "distanceKm": 8.11,
      "tmaxDateRange": "1941-06-16 to 2026-04-10",
      "noMatchFound": false
    },
    "69": {
      "id": 69,
      "city": "WILMINGTON, DE",
      "zip": "19802",
      "lat": 39.76,
      "lon": -75.53,
      "nceiStationId": "USW00013781",
      "nceiStationName": "WILMINGTON AIRPORT, DE US",
      "nceiLat": 39.67444,
      "nceiLon": -75.60566,
      "distanceKm": 11.51,
      "tmaxDateRange": "1931-04-16 to 2026-04-10",
      "noMatchFound": false
    },
    "70": {
      "id": 70,
      "city": "DAYTONA BEACH, FL",
      "zip": "32118",
      "lat": 29.21,
      "lon": -81,
      "nceiStationId": "USW00012834",
      "nceiStationName": "DAYTONA BEACH INTERNATIONAL AIRPORT, FL US",
      "nceiLat": 29.17351,
      "nceiLon": -81.07185,
      "distanceKm": 8.07,
      "tmaxDateRange": "1937-01-01 to 2026-04-10",
      "noMatchFound": false
    },
    "71": {
      "id": 71,
      "city": "FORT LAUDERDALE, FL",
      "zip": "33313",
      "lat": 26.15,
      "lon": -80.23,
      "nceiStationId": "USW00012885",
      "nceiStationName": "FORT LAUDERDALE EXECUTIVE AIRPORT, FL US",
      "nceiLat": 26.19905,
      "nceiLon": -80.17764,
      "distanceKm": 7.55,
      "tmaxDateRange": "1998-06-21 to 2026-04-10",
      "noMatchFound": false
    },
    "72": {
      "id": 72,
      "city": "FORT MYERS, FL",
      "zip": "33907",
      "lat": 26.56,
      "lon": -81.87,
      "nceiStationId": "USW00012835",
      "nceiStationName": "FORT MYERS PAGE FIELD AIRPORT, FL US",
      "nceiLat": 26.58495,
      "nceiLon": -81.86146,
      "distanceKm": 2.9,
      "tmaxDateRange": "1892-01-01 to 2026-04-10",
      "noMatchFound": false
    },
    "73": {
      "id": 73,
      "city": "GAINESVILLE, FL",
      "zip": "32603",
      "lat": 29.66,
      "lon": -82.35,
      "nceiStationId": "USW00012816",
      "nceiStationName": "GAINESVILLE REGIONAL AIRPORT, FL US",
      "nceiLat": 29.6917,
      "nceiLon": -82.27603,
      "distanceKm": 7.97,
      "tmaxDateRange": "1960-05-17 to 2026-04-10",
      "noMatchFound": false
    },
    "74": {
      "id": 74,
      "city": "JACKSONVILLE, FL",
      "zip": "32277",
      "lat": 30.38,
      "lon": -81.59,
      "nceiStationId": "USW00053860",
      "nceiStationName": "JACKSONVILLE CRAIG MUNICIPAL AIRPORT, FL US",
      "nceiLat": 30.33708,
      "nceiLon": -81.51277,
      "distanceKm": 8.81,
      "tmaxDateRange": "1998-01-01 to 2026-04-10",
      "noMatchFound": false
    },
    "75": {
      "id": 75,
      "city": "KEY WEST, FL",
      "zip": "33040",
      "lat": 24.55,
      "lon": -81.78,
      "nceiStationId": "USW00012836",
      "nceiStationName": "KEY WEST INTERNATIONAL AIRPORT, FL US",
      "nceiLat": 24.55706,
      "nceiLon": -81.75539,
      "distanceKm": 2.61,
      "tmaxDateRange": "1948-01-01 to 2026-04-10",
      "noMatchFound": false
    },
    "76": {
      "id": 76,
      "city": "MELBOURNE, FL",
      "zip": "32935",
      "lat": 28.15,
      "lon": -80.65,
      "nceiStationId": "USW00012838",
      "nceiStationName": "MELBOURNE INTERNATIONAL AIRPORT, FL US",
      "nceiLat": 28.09969,
      "nceiLon": -80.6356,
      "distanceKm": 5.77,
      "tmaxDateRange": "2000-07-01 to 2026-04-10",
      "noMatchFound": false
    },
    "77": {
      "id": 77,
      "city": "MIAMI, FL",
      "zip": "33131",
      "lat": 25.77,
      "lon": -80.18,
      "nceiStationId": "USW00012839",
      "nceiStationName": "MIAMI INTERNATIONAL AIRPORT, FL US",
      "nceiLat": 25.78805,
      "nceiLon": -80.31694,
      "distanceKm": 13.86,
      "tmaxDateRange": "1948-01-01 to 2026-04-10",
      "noMatchFound": false
    },
    "78": {
      "id": 78,
      "city": "ORLANDO, FL",
      "zip": "32839",
      "lat": 28.49,
      "lon": -81.41,
      "nceiStationId": "USW00012841",
      "nceiStationName": "ORLANDO EXECUTIVE AIRPORT, FL US",
      "nceiLat": 28.54653,
      "nceiLon": -81.33544,
      "distanceKm": 9.62,
      "tmaxDateRange": "1892-01-01 to 2026-04-10",
      "noMatchFound": false
    },
    "79": {
      "id": 79,
      "city": "PENSACOLA, FL",
      "zip": "32501",
      "lat": 30.43,
      "lon": -87.22,
      "nceiStationId": "USW00013899",
      "nceiStationName": "PENSACOLA REGIONAL AIRPORT, FL US",
      "nceiLat": 30.47612,
      "nceiLon": -87.18575,
      "distanceKm": 6.09,
      "tmaxDateRange": "1948-07-01 to 2026-04-08",
      "noMatchFound": false
    },
    "80": {
      "id": 80,
      "city": "TALLAHASSEE, FL",
      "zip": "32304",
      "lat": 30.45,
      "lon": -84.35,
      "nceiStationId": "USW00093805",
      "nceiStationName": "TALLAHASSEE REGIONAL AIRPORT, FL US",
      "nceiLat": 30.39354,
      "nceiLon": -84.35136,
      "distanceKm": 6.28,
      "tmaxDateRange": "1940-03-01 to 2026-04-10",
      "noMatchFound": false
    },
    "81": {
      "id": 81,
      "city": "TAMPA, FL",
      "zip": "33606",
      "lat": 27.95,
      "lon": -82.48,
      "nceiStationId": "USW00012842",
      "nceiStationName": "TAMPA INTERNATIONAL AIRPORT, FL US",
      "nceiLat": 27.96331,
      "nceiLon": -82.54,
      "distanceKm": 6.08,
      "tmaxDateRange": "1939-02-01 to 2026-04-10",
      "noMatchFound": false
    },
    "82": {
      "id": 82,
      "city": "VERO BEACH, FL",
      "zip": "32962",
      "lat": 27.59,
      "lon": -80.38,
      "nceiStationId": "USW00012843",
      "nceiStationName": "VERO BEACH INTERNATIONAL AIRPORT, FL US",
      "nceiLat": 27.6553,
      "nceiLon": -80.41425,
      "distanceKm": 8.01,
      "tmaxDateRange": "1942-11-01 to 2026-04-10",
      "noMatchFound": false
    },
    "83": {
      "id": 83,
      "city": "WEST PALM BEACH, FL",
      "zip": "33415",
      "lat": 26.66,
      "lon": -80.13,
      "nceiStationId": "USW00012844",
      "nceiStationName": "WEST PALM BEACH INTERNATIONAL AIRPORT, FL US",
      "nceiLat": 26.6851,
      "nceiLon": -80.09918,
      "distanceKm": 4.14,
      "tmaxDateRange": "1938-07-01 to 2026-04-10",
      "noMatchFound": false
    },
    "84": {
      "id": 84,
      "city": "ALBANY, GA",
      "zip": "31707",
      "lat": 31.59,
      "lon": -84.21,
      "nceiStationId": "USW00013869",
      "nceiStationName": "ALBANY SW GEORGIA REGIONAL AIRPORT, GA US",
      "nceiLat": 31.53642,
      "nceiLon": -84.1958,
      "distanceKm": 6.11,
      "tmaxDateRange": "1948-01-01 to 2026-04-10",
      "noMatchFound": false
    },
    "85": {
      "id": 85,
      "city": "ATHENS, GA",
      "zip": "30606",
      "lat": 33.95,
      "lon": -83.39,
      "nceiStationId": "USW00013873",
      "nceiStationName": "ATHENS BEN EPPS AIRPORT, GA US",
      "nceiLat": 33.94773,
      "nceiLon": -83.32736,
      "distanceKm": 5.78,
      "tmaxDateRange": "1944-06-01 to 2026-04-10",
      "noMatchFound": false
    },
    "86": {
      "id": 86,
      "city": "ATLANTA, GA",
      "zip": "30308",
      "lat": 33.77,
      "lon": -84.37,
      "nceiStationId": "USW00053863",
      "nceiStationName": "ATLANTA DEKALB PEACHTREE AIRPORT, GA US",
      "nceiLat": 33.87835,
      "nceiLon": -84.29802,
      "distanceKm": 13.76,
      "tmaxDateRange": "1998-03-16 to 2026-04-10",
      "noMatchFound": false
    },
    "87": {
      "id": 87,
      "city": "AUGUSTA, GA",
      "zip": "30903",
      "lat": 33.49,
      "lon": -82.16,
      "nceiStationId": "USW00013837",
      "nceiStationName": "AUGUSTA DANIEL FIELD AIRPORT, GA US",
      "nceiLat": 33.4668,
      "nceiLon": -82.03847,
      "distanceKm": 11.56,
      "tmaxDateRange": "1996-07-01 to 2026-04-10",
      "noMatchFound": false
    },
    "88": {
      "id": 88,
      "city": "BRUNSWICK, GA",
      "zip": "31520",
      "lat": 31.15,
      "lon": -81.48,
      "nceiStationId": "USW00013878",
      "nceiStationName": "BRUNSWICK MCKINNON AIRPORT, GA US",
      "nceiLat": 31.1527,
      "nceiLon": -81.39053,
      "distanceKm": 8.52,
      "tmaxDateRange": "1944-05-01 to 2026-04-05",
      "noMatchFound": false
    },
    "89": {
      "id": 89,
      "city": "COLUMBUS, GA",
      "zip": "31906",
      "lat": 32.47,
      "lon": -84.95,
      "nceiStationId": "USW00093842",
      "nceiStationName": "COLUMBUS METROPOLITAN AIRPORT, GA US",
      "nceiLat": 32.51625,
      "nceiLon": -84.94218,
      "distanceKm": 5.19,
      "tmaxDateRange": "1948-01-01 to 2026-04-10",
      "noMatchFound": false
    },
    "90": {
      "id": 90,
      "city": "MACON, GA",
      "zip": "31204",
      "lat": 32.85,
      "lon": -83.67,
      "nceiStationId": "USW00003813",
      "nceiStationName": "MACON MIDDLE GA REGIONAL AIRPORT, GA US",
      "nceiLat": 32.68889,
      "nceiLon": -83.65296,
      "distanceKm": 17.99,
      "tmaxDateRange": "1948-12-01 to 2026-04-10",
      "noMatchFound": false
    },
    "91": {
      "id": 91,
      "city": "SAVANNAH, GA",
      "zip": "31401",
      "lat": 32.08,
      "lon": -81.1,
      "nceiStationId": "USW00013824",
      "nceiStationName": "SAVANNAH HUNTER FIELD, GA US",
      "nceiLat": 32.01667,
      "nceiLon": -81.13333,
      "distanceKm": 7.71,
      "tmaxDateRange": "1950-10-04 to 2026-04-04",
      "noMatchFound": false
    },
    "92": {
      "id": 92,
      "city": "WAYCROSS, GA",
      "zip": "31501",
      "lat": 31.21,
      "lon": -82.35,
      "nceiStationId": "USW00013861",
      "nceiStationName": "WAYCROSS WARE CO AIRPORT, GA US",
      "nceiLat": 31.25,
      "nceiLon": -82.4,
      "distanceKm": 6.51,
      "tmaxDateRange": "1979-02-01 to 2026-04-05",
      "noMatchFound": false
    },
    "93": {
      "id": 93,
      "city": "HILO, HI",
      "zip": "96720",
      "lat": 19.69,
      "lon": -155.08,
      "nceiStationId": "USW00021504",
      "nceiStationName": "HILO INTERNATIONAL AIRPORT 87, HI US",
      "nceiLat": 19.71909,
      "nceiLon": -155.04897,
      "distanceKm": 4.58,
      "tmaxDateRange": "1949-10-01 to 2026-04-10",
      "noMatchFound": false
    },
    "94": {
      "id": 94,
      "city": "HONOLULU, HI",
      "zip": "96826",
      "lat": 21.29,
      "lon": -157.83,
      "nceiStationId": "USW00022521",
      "nceiStationName": "HONOLULU INTERNATIONAL AIRPORT, HI US",
      "nceiLat": 21.32402,
      "nceiLon": -157.93946,
      "distanceKm": 11.95,
      "tmaxDateRange": "1940-05-14 to 2026-04-10",
      "noMatchFound": false
    },
    "95": {
      "id": 95,
      "city": "KAHULUI, HI",
      "zip": "96732",
      "lat": 20.87,
      "lon": -156.45,
      "nceiStationId": "USW00022516",
      "nceiStationName": "KAHULUI AIRPORT, HI US",
      "nceiLat": 20.88871,
      "nceiLon": -156.43453,
      "distanceKm": 2.63,
      "tmaxDateRange": "1954-04-01 to 2026-04-10",
      "noMatchFound": false
    },
    "96": {
      "id": 96,
      "city": "LIHUE, HI",
      "zip": "96766",
      "lat": 21.97,
      "lon": -159.35,
      "nceiStationId": "USW00022536",
      "nceiStationName": "LIHUE WEATHER SERVICE OFFICE AIRPORT 1020.1, HI US",
      "nceiLat": 21.98048,
      "nceiLon": -159.33863,
      "distanceKm": 1.65,
      "tmaxDateRange": "1950-02-01 to 2026-04-10",
      "noMatchFound": false
    },
    "97": {
      "id": 97,
      "city": "BURLINGTON, IA",
      "zip": "52601",
      "lat": 40.8,
      "lon": -91.12,
      "nceiStationId": "USW00014931",
      "nceiStationName": "BURLINGTON MUNICIPAL AIRPORT, IA US",
      "nceiLat": 40.77291,
      "nceiLon": -91.12546,
      "distanceKm": 3.05,
      "tmaxDateRange": "1897-07-14 to 2026-04-10",
      "noMatchFound": false
    },
    "98": {
      "id": 98,
      "city": "CEDAR RAPIDS, IA",
      "zip": "52402",
      "lat": 42.02,
      "lon": -91.66,
      "nceiStationId": "USW00014990",
      "nceiStationName": "CEDAR RAPIDS MUNICIPAL AIRPORT, IA US",
      "nceiLat": 41.882917,
      "nceiLon": -91.724591,
      "distanceKm": 16.15,
      "tmaxDateRange": "1953-06-01 to 2026-04-10",
      "noMatchFound": false
    },
    "99": {
      "id": 99,
      "city": "DES MOINES, IA",
      "zip": "50311",
      "lat": 41.6,
      "lon": -93.67,
      "nceiStationId": "USW00014933",
      "nceiStationName": "DES MOINES INTERNATIONAL AIRPORT, IA US",
      "nceiLat": 41.53395,
      "nceiLon": -93.65313,
      "distanceKm": 7.48,
      "tmaxDateRange": "1945-07-01 to 2026-04-10",
      "noMatchFound": false
    },
    "100": {
      "id": 100,
      "city": "DUBUQUE, IA",
      "zip": "52001",
      "lat": 42.5,
      "lon": -90.69,
      "nceiStationId": "USW00094908",
      "nceiStationName": "DUBUQUE REGIONAL AIRPORT, IA US",
      "nceiLat": 42.39834,
      "nceiLon": -90.70913,
      "distanceKm": 11.41,
      "tmaxDateRange": "1951-02-01 to 2026-04-10",
      "noMatchFound": false
    },
    "101": {
      "id": 101,
      "city": "MASON CITY, IA",
      "zip": "50401",
      "lat": 43.15,
      "lon": -93.19,
      "nceiStationId": "USW00014940",
      "nceiStationName": "MASON CITY MUNICIPAL AIRPORT, IA US",
      "nceiLat": 43.1544,
      "nceiLon": -93.32611,
      "distanceKm": 11.05,
      "tmaxDateRange": "1948-01-01 to 2026-04-10",
      "noMatchFound": false
    },
    "102": {
      "id": 102,
      "city": "OTTUMWA, IA",
      "zip": "52501",
      "lat": 41.01,
      "lon": -92.41,
      "nceiStationId": "USW00014950",
      "nceiStationName": "OTTUMWA INDUSTRIAL AIRPORT, IA US",
      "nceiLat": 41.10079,
      "nceiLon": -92.44453,
      "distanceKm": 10.5,
      "tmaxDateRange": "1948-01-02 to 2026-04-10",
      "noMatchFound": false
    },
    "103": {
      "id": 103,
      "city": "SIOUX CITY, IA",
      "zip": "51104",
      "lat": 42.54,
      "lon": -96.4,
      "nceiStationId": "USW00014943",
      "nceiStationName": "SIOUX CITY AIRPORT, IA US",
      "nceiLat": 42.39169,
      "nceiLon": -96.37948,
      "distanceKm": 16.58,
      "tmaxDateRange": "1940-04-01 to 2026-04-10",
      "noMatchFound": false
    },
    "104": {
      "id": 104,
      "city": "SPENCER, IA",
      "zip": "51301",
      "lat": 43.14,
      "lon": -95.15,
      "nceiStationId": "USW00014972",
      "nceiStationName": "SPENCER MUNICIPAL AIRPORT, IA US",
      "nceiLat": 43.16822,
      "nceiLon": -95.21011,
      "distanceKm": 5.8,
      "tmaxDateRange": "1996-10-01 to 2026-04-10",
      "noMatchFound": false
    },
    "105": {
      "id": 105,
      "city": "WATERLOO, IA",
      "zip": "50702",
      "lat": 42.46,
      "lon": -92.31,
      "nceiStationId": "USW00094910",
      "nceiStationName": "WATERLOO MUNICIPAL AIRPORT, IA US",
      "nceiLat": 42.55437,
      "nceiLon": -92.40131,
      "distanceKm": 12.89,
      "tmaxDateRange": "1950-03-01 to 2026-04-10",
      "noMatchFound": false
    },
    "106": {
      "id": 106,
      "city": "BOISE, ID",
      "zip": "83704",
      "lat": 43.63,
      "lon": -116.28,
      "nceiStationId": "USW00024131",
      "nceiStationName": "BOISE AIR TERMINAL, ID US",
      "nceiLat": 43.56705,
      "nceiLon": -116.24062,
      "distanceKm": 7.68,
      "tmaxDateRange": "1940-01-01 to 2026-04-10",
      "noMatchFound": false
    },
    "107": {
      "id": 107,
      "city": "BURLEY, ID",
      "zip": "83318",
      "lat": 42.39,
      "lon": -113.78,
      "nceiStationId": "USW00024133",
      "nceiStationName": "BURLEY MUNICIPAL AIRPORT, ID US",
      "nceiLat": 42.54525,
      "nceiLon": -113.7686,
      "distanceKm": 17.29,
      "tmaxDateRange": "1948-08-02 to 2026-04-10",
      "noMatchFound": false
    },
    "108": {
      "id": 108,
      "city": "IDAHO FALLS, ID",
      "zip": "83404",
      "lat": 43.42,
      "lon": -112,
      "nceiStationId": "USW00024145",
      "nceiStationName": "IDAHO FALLS FAA AIRPORT, ID US",
      "nceiLat": 43.52044,
      "nceiLon": -112.06753,
      "distanceKm": 12.43,
      "tmaxDateRange": "1948-08-01 to 2026-04-10",
      "noMatchFound": false
    },
    "109": {
      "id": 109,
      "city": "LEWISTON, ID",
      "zip": "83501",
      "lat": 46.16,
      "lon": -116.92,
      "nceiStationId": "USW00024149",
      "nceiStationName": "LEWISTON AIRPORT, ID US",
      "nceiLat": 46.37458,
      "nceiLon": -117.01529,
      "distanceKm": 24.96,
      "tmaxDateRange": "1948-01-01 to 2026-04-10",
      "noMatchFound": false
    },
    "110": {
      "id": 110,
      "city": "POCATELLO, ID",
      "zip": "83201",
      "lat": 42.9,
      "lon": -112.39,
      "nceiStationId": "USC00107210",
      "nceiStationName": "POCATELLO CITY, ID US",
      "nceiLat": 42.87496,
      "nceiLon": -112.44686,
      "distanceKm": 5.4,
      "tmaxDateRange": "2004-10-01 to 2026-04-10",
      "noMatchFound": false
    },
    "111": {
      "id": 111,
      "city": "CHICAGO, IL",
      "zip": "60611",
      "lat": 41.9,
      "lon": -87.61,
      "nceiStationId": "USW00014819",
      "nceiStationName": "CHICAGO MIDWAY AIRPORT, IL US",
      "nceiLat": 41.78412,
      "nceiLon": -87.75514,
      "distanceKm": 17.62,
      "tmaxDateRange": "1997-05-01 to 2026-04-10",
      "noMatchFound": false
    },
    "112": {
      "id": 112,
      "city": "MOLINE, IL",
      "zip": "61265",
      "lat": 41.48,
      "lon": -90.48,
      "nceiStationId": "USW00014923",
      "nceiStationName": "MOLINE QUAD CITY INTERNATIONAL AIRPORT, IL US",
      "nceiLat": 41.44816,
      "nceiLon": -90.52365,
      "distanceKm": 5.08,
      "tmaxDateRange": "1943-05-24 to 2026-04-10",
      "noMatchFound": false
    },
    "113": {
      "id": 113,
      "city": "PEORIA, IL",
      "zip": "61606",
      "lat": 40.7,
      "lon": -89.61,
      "nceiStationId": "USW00014842",
      "nceiStationName": "GENERAL WAYNE A. DOWNING INTERNATIONAL AIRPORT, IL US",
      "nceiLat": 40.66747,
      "nceiLon": -89.68418,
      "distanceKm": 7.23,
      "tmaxDateRange": "1943-05-04 to 2026-04-10",
      "noMatchFound": false
    },
    "114": {
      "id": 114,
      "city": "QUINCY, IL",
      "zip": "62301",
      "lat": 39.93,
      "lon": -91.38,
      "nceiStationId": "USC00117077",
      "nceiStationName": "QUINCY DAM 21, IL US",
      "nceiLat": 39.90355,
      "nceiLon": -91.42832,
      "distanceKm": 5.06,
      "tmaxDateRange": "1937-05-01 to 2026-04-11",
      "noMatchFound": false
    },
    "115": {
      "id": 115,
      "city": "ROCKFORD, IL",
      "zip": "61104",
      "lat": 42.25,
      "lon": -89.08,
      "nceiStationId": "USW00094822",
      "nceiStationName": "ROCKFORD GREATER ROCKFORD AIRPORT, IL US",
      "nceiLat": 42.19325,
      "nceiLon": -89.093348,
      "distanceKm": 6.41,
      "tmaxDateRange": "1951-01-01 to 2026-04-10",
      "noMatchFound": false
    },
    "116": {
      "id": 116,
      "city": "SPRINGFIELD, IL",
      "zip": "62704",
      "lat": 39.77,
      "lon": -89.68,
      "nceiStationId": "USW00093822",
      "nceiStationName": "SPRINGFIELD ABRAHAM LINCOLN CAPITAL AIRPORT, IL US",
      "nceiLat": 39.84529,
      "nceiLon": -89.68401,
      "distanceKm": 8.38,
      "tmaxDateRange": "1901-01-01 to 2026-04-10",
      "noMatchFound": false
    },
    "117": {
      "id": 117,
      "city": "EVANSVILLE, IN",
      "zip": "47714",
      "lat": 37.96,
      "lon": -87.52,
      "nceiStationId": "USW00093817",
      "nceiStationName": "EVANSVILLE REGIONAL AIRPORT, IN US",
      "nceiLat": 38.05015,
      "nceiLon": -87.51465,
      "distanceKm": 10.04,
      "tmaxDateRange": "1948-01-01 to 2026-04-10",
      "noMatchFound": false
    },
    "118": {
      "id": 118,
      "city": "FORT WAYNE, IN",
      "zip": "46807",
      "lat": 41.04,
      "lon": -85.15,
      "nceiStationId": "USW00014827",
      "nceiStationName": "FORT WAYNE INTERNATIONAL AIRPORT, IN US",
      "nceiLat": 40.97248,
      "nceiLon": -85.20636,
      "distanceKm": 8.87,
      "tmaxDateRange": "1939-08-01 to 2026-04-10",
      "noMatchFound": false
    },
    "119": {
      "id": 119,
      "city": "INDIANAPOLIS, IN",
      "zip": "46201",
      "lat": 39.77,
      "lon": -86.11,
      "nceiStationId": "USC00121326",
      "nceiStationName": "CASTLETON 2 S, IN US",
      "nceiLat": 39.8801,
      "nceiLon": -86.0514,
      "distanceKm": 13.23,
      "tmaxDateRange": "2010-04-01 to 2026-04-10",
      "noMatchFound": false
    },
    "120": {
      "id": 120,
      "city": "SOUTH BEND, IN",
      "zip": "46615",
      "lat": 41.67,
      "lon": -86.21,
      "nceiStationId": "USW00014848",
      "nceiStationName": "SOUTH BEND AIRPORT, IN US",
      "nceiLat": 41.70722,
      "nceiLon": -86.31628,
      "distanceKm": 9.75,
      "tmaxDateRange": "1893-12-01 to 2026-04-10",
      "noMatchFound": false
    },
    "121": {
      "id": 121,
      "city": "WEST LAFAYETTE, IN",
      "zip": "47906",
      "lat": 40.44,
      "lon": -86.91,
      "nceiStationId": "USW00014835",
      "nceiStationName": "LAFAYETTE PURDUE UNIVERSITY AIRPORT, IN US",
      "nceiLat": 40.41236,
      "nceiLon": -86.94739,
      "distanceKm": 4.41,
      "tmaxDateRange": "1944-01-01 to 2026-04-10",
      "noMatchFound": false
    },
    "122": {
      "id": 122,
      "city": "CHANUTE, KS",
      "zip": "66720",
      "lat": 37.67,
      "lon": -95.48,
      "nceiStationId": "USW00013981",
      "nceiStationName": "CHANUTE MARTIN JOHNSON AIRPORT, KS US",
      "nceiLat": 37.6705,
      "nceiLon": -95.48462,
      "distanceKm": 0.41,
      "tmaxDateRange": "1894-01-01 to 2026-04-10",
      "noMatchFound": false
    },
    "123": {
      "id": 123,
      "city": "CONCORDIA, KS",
      "zip": "66901",
      "lat": 39.57,
      "lon": -97.66,
      "nceiStationId": "USW00013984",
      "nceiStationName": "CONCORDIA ASOS, KS US",
      "nceiLat": 39.55127,
      "nceiLon": -97.65077,
      "distanceKm": 2.23,
      "tmaxDateRange": "1885-05-01 to 2026-04-10",
      "noMatchFound": false
    },
    "124": {
      "id": 124,
      "city": "DODGE CITY, KS",
      "zip": "67801",
      "lat": 37.75,
      "lon": -100.01,
      "nceiStationId": "USW00013985",
      "nceiStationName": "DODGE CITY REGIONAL AIRPORT, KS US",
      "nceiLat": 37.77105,
      "nceiLon": -99.96915,
      "distanceKm": 4.29,
      "tmaxDateRange": "1948-01-01 to 2026-04-10",
      "noMatchFound": false
    },
    "125": {
      "id": 125,
      "city": "GARDEN CITY, KS",
      "zip": "67846",
      "lat": 37.97,
      "lon": -100.86,
      "nceiStationId": "USW00023064",
      "nceiStationName": "GARDEN CITY REGIONAL AIRPORT, KS US",
      "nceiLat": 37.92208,
      "nceiLon": -100.72428,
      "distanceKm": 13.04,
      "tmaxDateRange": "1947-03-01 to 2026-04-10",
      "noMatchFound": false
    },
    "126": {
      "id": 126,
      "city": "GOODLAND, KS",
      "zip": "67735",
      "lat": 39.34,
      "lon": -101.7,
      "nceiStationId": "USW00023065",
      "nceiStationName": "GOODLAND RENNER FIELD, KS US",
      "nceiLat": 39.36729,
      "nceiLon": -101.69322,
      "distanceKm": 3.09,
      "tmaxDateRange": "1895-06-13 to 2026-04-10",
      "noMatchFound": false
    },
    "127": {
      "id": 127,
      "city": "RUSSELL, KS",
      "zip": "67665",
      "lat": 38.88,
      "lon": -98.85,
      "nceiStationId": "USW00093997",
      "nceiStationName": "RUSSELL MUNICIPAL AIRPORT, KS US",
      "nceiLat": 38.87251,
      "nceiLon": -98.80928,
      "distanceKm": 3.62,
      "tmaxDateRange": "1949-09-01 to 2026-04-10",
      "noMatchFound": false
    },
    "128": {
      "id": 128,
      "city": "SALINA, KS",
      "zip": "67401",
      "lat": 38.81,
      "lon": -97.61,
      "nceiStationId": "USW00003919",
      "nceiStationName": "SALINA MUNICIPAL AIRPORT, KS US",
      "nceiLat": 38.77996,
      "nceiLon": -97.64444,
      "distanceKm": 4.48,
      "tmaxDateRange": "1952-01-01 to 2026-04-10",
      "noMatchFound": false
    },
    "129": {
      "id": 129,
      "city": "TOPEKA, KS",
      "zip": "66604",
      "lat": 39.03,
      "lon": -95.69,
      "nceiStationId": "USW00013996",
      "nceiStationName": "TOPEKA ASOS, KS US",
      "nceiLat": 39.07246,
      "nceiLon": -95.62602,
      "distanceKm": 7.27,
      "tmaxDateRange": "1946-08-01 to 2026-04-10",
      "noMatchFound": false
    },
    "130": {
      "id": 130,
      "city": "WICHITA, KS",
      "zip": "67218",
      "lat": 37.67,
      "lon": -97.28,
      "nceiStationId": "USW00003923",
      "nceiStationName": "WICHITA MCCONNELL AFB, KS US",
      "nceiLat": 37.61667,
      "nceiLon": -97.26667,
      "distanceKm": 6.05,
      "tmaxDateRange": "1953-12-01 to 2026-04-04",
      "noMatchFound": false
    },
    "131": {
      "id": 131,
      "city": "BOWLING GREEN, KY",
      "zip": "42104",
      "lat": 36.97,
      "lon": -86.44,
      "nceiStationId": "USW00093808",
      "nceiStationName": "BOWLING GREEN WARREN CO AIRPORT, KY US",
      "nceiLat": 36.96467,
      "nceiLon": -86.42379,
      "distanceKm": 1.56,
      "tmaxDateRange": "1893-01-01 to 2026-04-10",
      "noMatchFound": false
    },
    "132": {
      "id": 132,
      "city": "JACKSON, KY",
      "zip": "41339",
      "lat": 37.55,
      "lon": -83.37,
      "nceiStationId": "USW00003889",
      "nceiStationName": "JACKSON JULIAN CARROLL AIRPORT, KY US",
      "nceiLat": 37.591335,
      "nceiLon": -83.313696,
      "distanceKm": 6.76,
      "tmaxDateRange": "1981-01-01 to 2026-04-10",
      "noMatchFound": false
    },
    "133": {
      "id": 133,
      "city": "LEXINGTON, KY",
      "zip": "40517",
      "lat": 37.98,
      "lon": -84.49,
      "nceiStationId": "USW00093820",
      "nceiStationName": "LEXINGTON BLUEGRASS AIRPORT, KY US",
      "nceiLat": 38.03391,
      "nceiLon": -84.61138,
      "distanceKm": 12.21,
      "tmaxDateRange": "1872-10-11 to 2026-04-10",
      "noMatchFound": false
    },
    "134": {
      "id": 134,
      "city": "LOUISVILLE, KY",
      "zip": "40203",
      "lat": 38.25,
      "lon": -85.77,
      "nceiStationId": "USW00093821",
      "nceiStationName": "LOUISVILLE INTERNATIONAL AIRPORT, KY US",
      "nceiLat": 38.17738,
      "nceiLon": -85.73077,
      "distanceKm": 8.77,
      "tmaxDateRange": "1948-01-01 to 2026-04-10",
      "noMatchFound": false
    },
    "135": {
      "id": 135,
      "city": "PADUCAH, KY",
      "zip": "42003",
      "lat": 37.01,
      "lon": -88.58,
      "nceiStationId": "USW00003816",
      "nceiStationName": "PADUCAH BARKLEY REGIONAL AIRPORT, KY US",
      "nceiLat": 37.05635,
      "nceiLon": -88.77425,
      "distanceKm": 18,
      "tmaxDateRange": "1949-08-20 to 2026-04-10",
      "noMatchFound": false
    },
    "136": {
      "id": 136,
      "city": "BATON ROUGE, LA",
      "zip": "70802",
      "lat": 30.44,
      "lon": -91.18,
      "nceiStationId": "USW00013970",
      "nceiStationName": "BATON ROUGE METRO AIRPORT, LA US",
      "nceiLat": 30.53782,
      "nceiLon": -91.14681,
      "distanceKm": 11.33,
      "tmaxDateRange": "1930-01-01 to 2026-04-10",
      "noMatchFound": false
    },
    "137": {
      "id": 137,
      "city": "LAFAYETTE, LA",
      "zip": "70503",
      "lat": 30.21,
      "lon": -92.02,
      "nceiStationId": "USW00013976",
      "nceiStationName": "LAFAYETTE REGIONAL AIRPORT, LA US",
      "nceiLat": 30.19859,
      "nceiLon": -91.98957,
      "distanceKm": 3.19,
      "tmaxDateRange": "1893-01-01 to 2026-04-09",
      "noMatchFound": false
    },
    "138": {
      "id": 138,
      "city": "LAKE CHARLES, LA",
      "zip": "70601",
      "lat": 30.21,
      "lon": -93.2,
      "nceiStationId": "USW00013941",
      "nceiStationName": "LAKE CHARLES CHENNAULT INTERNATIONAL AIRPORT, LA US",
      "nceiLat": 30.21028,
      "nceiLon": -93.14333,
      "distanceKm": 5.45,
      "tmaxDateRange": "1895-01-01 to 2026-04-03",
      "noMatchFound": false
    },
    "139": {
      "id": 139,
      "city": "MONROE, LA",
      "zip": "71201",
      "lat": 32.53,
      "lon": -92.11,
      "nceiStationId": "USW00013942",
      "nceiStationName": "MONROE REGIONAL AIRPORT, LA US",
      "nceiLat": 32.51552,
      "nceiLon": -92.02995,
      "distanceKm": 7.68,
      "tmaxDateRange": "1930-01-02 to 2026-04-10",
      "noMatchFound": false
    },
    "140": {
      "id": 140,
      "city": "NEW ORLEANS, LA",
      "zip": "70116",
      "lat": 29.97,
      "lon": -90.06,
      "nceiStationId": "USW00012930",
      "nceiStationName": "NEW ORLEANS AUDUBON, LA US",
      "nceiLat": 29.9166,
      "nceiLon": -90.1302,
      "distanceKm": 9,
      "tmaxDateRange": "1893-01-01 to 2026-02-28",
      "noMatchFound": false
    },
    "141": {
      "id": 141,
      "city": "SHREVEPORT, LA",
      "zip": "71104",
      "lat": 32.48,
      "lon": -93.73,
      "nceiStationId": "USW00013944",
      "nceiStationName": "SHREVEPORT BARKSDALE AFB, LA US",
      "nceiLat": 32.5,
      "nceiLon": -93.66667,
      "distanceKm": 6.34,
      "tmaxDateRange": "1949-01-01 to 2026-04-04",
      "noMatchFound": false
    },
    "142": {
      "id": 142,
      "city": "BOSTON, MA",
      "zip": "02113",
      "lat": 42.37,
      "lon": -71.06,
      "nceiStationId": "USW00014739",
      "nceiStationName": "BOSTON LOGAN INTERNATIONAL AIRPORT, MA US",
      "nceiLat": 42.36057,
      "nceiLon": -71.00975,
      "distanceKm": 4.26,
      "tmaxDateRange": "1936-01-01 to 2026-04-10",
      "noMatchFound": false
    },
    "143": {
      "id": 143,
      "city": "CHATHAM, MA",
      "zip": "02650",
      "lat": 41.7,
      "lon": -69.95,
      "nceiStationId": "USW00094624",
      "nceiStationName": "CHATHAM MUNICIPAL AIRPORT, MA US",
      "nceiLat": 41.68778,
      "nceiLon": -69.99318,
      "distanceKm": 3.83,
      "tmaxDateRange": "1996-07-01 to 2026-04-10",
      "noMatchFound": false
    },
    "144": {
      "id": 144,
      "city": "WORCESTER, MA",
      "zip": "01610",
      "lat": 42.25,
      "lon": -71.81,
      "nceiStationId": "USW00094746",
      "nceiStationName": "WORCESTER REGIONAL AIRPORT, MA US",
      "nceiLat": 42.2706,
      "nceiLon": -71.8731,
      "distanceKm": 5.68,
      "tmaxDateRange": "1948-06-01 to 2026-04-10",
      "noMatchFound": false
    },
    "145": {
      "id": 145,
      "city": "BALTIMORE, MD",
      "zip": "21231",
      "lat": 39.29,
      "lon": -76.59,
      "nceiStationId": "USW00093784",
      "nceiStationName": "MARYLAND SCIENCE CENTER, MD US",
      "nceiLat": 39.2814,
      "nceiLon": -76.6111,
      "distanceKm": 2.05,
      "tmaxDateRange": "1998-05-01 to 2026-04-10",
      "noMatchFound": false
    },
    "146": {
      "id": 146,
      "city": "SALISBURY, MD",
      "zip": "21801",
      "lat": 38.38,
      "lon": -75.64,
      "nceiStationId": "USW00093720",
      "nceiStationName": "SALISBURY WICOMICO REGIONAL AIRPORT, MD US",
      "nceiLat": 38.3409,
      "nceiLon": -75.51324,
      "distanceKm": 11.88,
      "tmaxDateRange": "1948-07-20 to 2026-04-10",
      "noMatchFound": false
    },
    "147": {
      "id": 147,
      "city": "AUGUSTA, ME",
      "zip": "04330",
      "lat": 44.33,
      "lon": -69.72,
      "nceiStationId": "USW00014605",
      "nceiStationName": "AUGUSTA STATE AIRPORT, ME US",
      "nceiLat": 44.3161,
      "nceiLon": -69.79702,
      "distanceKm": 6.32,
      "tmaxDateRange": "1948-06-01 to 2026-04-10",
      "noMatchFound": false
    },
    "148": {
      "id": 148,
      "city": "BANGOR, ME",
      "zip": "04401",
      "lat": 44.83,
      "lon": -68.78,
      "nceiStationId": "USW00014606",
      "nceiStationName": "BANGOR INTERNATIONAL AIRPORT, ME US",
      "nceiLat": 44.79791,
      "nceiLon": -68.81852,
      "distanceKm": 4.69,
      "tmaxDateRange": "1953-01-01 to 2026-04-10",
      "noMatchFound": false
    },
    "149": {
      "id": 149,
      "city": "CARIBOU, ME",
      "zip": "04736",
      "lat": 46.86,
      "lon": -67.99,
      "nceiStationId": "USW00014607",
      "nceiStationName": "CARIBOU WEATHER FORECAST OFFICE, ME US",
      "nceiLat": 46.87049,
      "nceiLon": -68.01723,
      "distanceKm": 2.38,
      "tmaxDateRange": "1940-03-11 to 2026-04-10",
      "noMatchFound": false
    },
    "150": {
      "id": 150,
      "city": "HOULTON, ME",
      "zip": "04730",
      "lat": 46.11,
      "lon": -67.83,
      "nceiStationId": "USW00014609",
      "nceiStationName": "HOULTON AIRPORT, ME US",
      "nceiLat": 46.11846,
      "nceiLon": -67.79289,
      "distanceKm": 3.01,
      "tmaxDateRange": "1948-06-01 to 2026-04-10",
      "noMatchFound": false
    },
    "151": {
      "id": 151,
      "city": "PORTLAND, ME",
      "zip": "04101",
      "lat": 43.66,
      "lon": -70.25,
      "nceiStationId": "USW00014764",
      "nceiStationName": "PORTLAND JETPORT, ME US",
      "nceiLat": 43.64244,
      "nceiLon": -70.30443,
      "distanceKm": 4.79,
      "tmaxDateRange": "1940-11-07 to 2026-04-10",
      "noMatchFound": false
    },
    "152": {
      "id": 152,
      "city": "ALPENA, MI",
      "zip": "49707",
      "lat": 45.07,
      "lon": -83.43,
      "nceiStationId": "USW00014814",
      "nceiStationName": "ALPENA WASTEWATER PLANT, MI US",
      "nceiLat": 45.0605,
      "nceiLon": -83.428,
      "distanceKm": 1.07,
      "tmaxDateRange": "1948-01-01 to 2026-02-28",
      "noMatchFound": false
    },
    "153": {
      "id": 153,
      "city": "DETROIT, MI",
      "zip": "48224",
      "lat": 42.41,
      "lon": -82.94,
      "nceiStationId": "USW00014822",
      "nceiStationName": "DETROIT CITY AIRPORT, MI US",
      "nceiLat": 42.40725,
      "nceiLon": -83.00899,
      "distanceKm": 5.67,
      "tmaxDateRange": "1948-01-01 to 2026-04-10",
      "noMatchFound": false
    },
    "154": {
      "id": 154,
      "city": "FLINT, MI",
      "zip": "48503",
      "lat": 43.02,
      "lon": -83.69,
      "nceiStationId": "USW00014826",
      "nceiStationName": "FLINT FCWOS, MI US",
      "nceiLat": 42.96684,
      "nceiLon": -83.74996,
      "distanceKm": 7.66,
      "tmaxDateRange": "1948-05-02 to 2026-04-10",
      "noMatchFound": false
    },
    "155": {
      "id": 155,
      "city": "GRAND RAPIDS, MI",
      "zip": "49507",
      "lat": 42.93,
      "lon": -85.66,
      "nceiStationId": "USW00094860",
      "nceiStationName": "GRAND RAPIDS GERALD R FORD INTERNATIONAL AIRPORT, MI US",
      "nceiLat": 42.8821,
      "nceiLon": -85.52297,
      "distanceKm": 12.37,
      "tmaxDateRange": "1963-11-24 to 2026-04-10",
      "noMatchFound": false
    },
    "156": {
      "id": 156,
      "city": "HANCOCK, MI",
      "zip": "49930",
      "lat": 47.13,
      "lon": -88.6,
      "nceiStationId": "USW00014858",
      "nceiStationName": "HANCOCK HOUGHTON CO AIRPORT, MI US",
      "nceiLat": 47.16594,
      "nceiLon": -88.48076,
      "distanceKm": 9.86,
      "tmaxDateRange": "1948-01-01 to 2026-04-10",
      "noMatchFound": false
    },
    "157": {
      "id": 157,
      "city": "HOUGHTON LAKE, MI",
      "zip": "48630",
      "lat": 44.32,
      "lon": -84.77,
      "nceiStationId": "USW00094814",
      "nceiStationName": "HOUGHTON LAKE ROSCOMMON CO AIRPORT, MI US",
      "nceiLat": 44.35904,
      "nceiLon": -84.6739,
      "distanceKm": 8.79,
      "tmaxDateRange": "1964-07-01 to 2026-04-10",
      "noMatchFound": false
    },
    "158": {
      "id": 158,
      "city": "JACKSON, MI",
      "zip": "49202",
      "lat": 42.27,
      "lon": -84.41,
      "nceiStationId": "USW00014833",
      "nceiStationName": "JACKSON REYNOLDS FIELD, MI US",
      "nceiLat": 42.26373,
      "nceiLon": -84.45644,
      "distanceKm": 3.88,
      "tmaxDateRange": "1948-05-01 to 2026-04-10",
      "noMatchFound": false
    },
    "159": {
      "id": 159,
      "city": "LANSING, MI",
      "zip": "48915",
      "lat": 42.74,
      "lon": -84.57,
      "nceiStationId": "USW00014836",
      "nceiStationName": "LANSING CAPITAL CITY AIRPORT, MI US",
      "nceiLat": 42.77609,
      "nceiLon": -84.59972,
      "distanceKm": 4.69,
      "tmaxDateRange": "1948-01-01 to 2026-04-10",
      "noMatchFound": false
    },
    "160": {
      "id": 160,
      "city": "MARQUETTE, MI",
      "zip": "49855",
      "lat": 46.55,
      "lon": -87.39,
      "nceiStationId": "USW00014838",
      "nceiStationName": "MARQUETTE, MI US",
      "nceiLat": 46.5458,
      "nceiLon": -87.3795,
      "distanceKm": 0.93,
      "tmaxDateRange": "1860-11-01 to 2026-04-10",
      "noMatchFound": false
    },
    "161": {
      "id": 161,
      "city": "MUSKEGON, MI",
      "zip": "49441",
      "lat": 43.22,
      "lon": -86.25,
      "nceiStationId": "USW00014840",
      "nceiStationName": "MUSKEGON CO AIRPORT, MI US",
      "nceiLat": 43.17111,
      "nceiLon": -86.23685,
      "distanceKm": 5.54,
      "tmaxDateRange": "1896-06-02 to 2026-04-10",
      "noMatchFound": false
    },
    "162": {
      "id": 162,
      "city": "SAGINAW, MI",
      "zip": "48602",
      "lat": 43.42,
      "lon": -83.97,
      "nceiStationId": "USW00014845",
      "nceiStationName": "SAGINAW MBS INTERNATIONAL AIRPORT, MI US",
      "nceiLat": 43.52808,
      "nceiLon": -84.08133,
      "distanceKm": 15,
      "tmaxDateRange": "1898-01-01 to 2026-04-10",
      "noMatchFound": false
    },
    "163": {
      "id": 163,
      "city": "SAULT SAINTE MARIE, MI",
      "zip": "49783",
      "lat": 46.48,
      "lon": -84.36,
      "nceiStationId": "USW00014847",
      "nceiStationName": "SAULT STE MARIE SANDERSON FIELD, MI US",
      "nceiLat": 46.47998,
      "nceiLon": -84.35809,
      "distanceKm": 0.15,
      "tmaxDateRange": "1931-01-01 to 2026-04-10",
      "noMatchFound": false
    },
    "164": {
      "id": 164,
      "city": "TRAVERSE CITY, MI",
      "zip": "49684",
      "lat": 44.76,
      "lon": -85.7,
      "nceiStationId": "USW00014850",
      "nceiStationName": "TRAVERSE CITY CHERRY CAPITAL AIRPORT, MI US",
      "nceiLat": 44.73895,
      "nceiLon": -85.5679,
      "distanceKm": 10.69,
      "tmaxDateRange": "1896-06-01 to 2026-04-10",
      "noMatchFound": false
    },
    "165": {
      "id": 165,
      "city": "ALEXANDRIA, MN",
      "zip": "56308",
      "lat": 45.87,
      "lon": -95.37,
      "nceiStationId": "USW00014910",
      "nceiStationName": "ALEXANDRIA CHANDLER FIELD, MN US",
      "nceiLat": 45.86801,
      "nceiLon": -95.39399,
      "distanceKm": 1.87,
      "tmaxDateRange": "1940-05-01 to 2026-04-10",
      "noMatchFound": false
    },
    "166": {
      "id": 166,
      "city": "DULUTH, MN",
      "zip": "55805",
      "lat": 46.8,
      "lon": -92.1,
      "nceiStationId": "USW00014913",
      "nceiStationName": "DULUTH INTERNATIONAL AIRPORT, MN US",
      "nceiLat": 46.8436,
      "nceiLon": -92.18658,
      "distanceKm": 8.18,
      "tmaxDateRange": "1948-01-01 to 2026-04-10",
      "noMatchFound": false
    },
    "167": {
      "id": 167,
      "city": "HIBBING, MN",
      "zip": "55746",
      "lat": 47.4,
      "lon": -92.94,
      "nceiStationId": "USW00094931",
      "nceiStationName": "HIBBING CHISHOLM HIBBING AIRPORT, MN US",
      "nceiLat": 47.38039,
      "nceiLon": -92.83246,
      "distanceKm": 8.38,
      "tmaxDateRange": "1962-11-01 to 2026-04-10",
      "noMatchFound": false
    },
    "168": {
      "id": 168,
      "city": "INTERNATIONAL FALLS, MN",
      "zip": "56649",
      "lat": 48.58,
      "lon": -93.4,
      "nceiStationId": "USW00014918",
      "nceiStationName": "INTERNATIONAL FALLS INTERNATIONAL AIRPORT, MN US",
      "nceiLat": 48.55943,
      "nceiLon": -93.39554,
      "distanceKm": 2.31,
      "tmaxDateRange": "1906-07-01 to 2026-04-10",
      "noMatchFound": false
    },
    "169": {
      "id": 169,
      "city": "MINNEAPOLIS, MN",
      "zip": "55404",
      "lat": 44.96,
      "lon": -93.26,
      "nceiStationId": "USW00014922",
      "nceiStationName": "MINNEAPOLIS ST. PAUL INTERNATIONAL AIRPORT, MN US",
      "nceiLat": 44.88523,
      "nceiLon": -93.23133,
      "distanceKm": 8.62,
      "tmaxDateRange": "1938-04-09 to 2026-04-10",
      "noMatchFound": false
    },
    "170": {
      "id": 170,
      "city": "ROCHESTER, MN",
      "zip": "55901",
      "lat": 44.07,
      "lon": -92.51,
      "nceiStationId": "USW00014925",
      "nceiStationName": "ROCHESTER INTERNATIONAL AIRPORT, MN US",
      "nceiLat": 43.904,
      "nceiLon": -92.49207,
      "distanceKm": 18.51,
      "tmaxDateRange": "1893-01-18 to 2026-04-10",
      "noMatchFound": false
    },
    "171": {
      "id": 171,
      "city": "SAINT CLOUD, MN",
      "zip": "56303",
      "lat": 45.57,
      "lon": -94.21,
      "nceiStationId": "USW00014926",
      "nceiStationName": "ST. CLOUD REGIONAL AIRPORT, MN US",
      "nceiLat": 45.54416,
      "nceiLon": -94.0516,
      "distanceKm": 12.66,
      "tmaxDateRange": "1939-10-21 to 2026-04-10",
      "noMatchFound": false
    },
    "172": {
      "id": 172,
      "city": "COLUMBIA, MO",
      "zip": "65203",
      "lat": 38.88,
      "lon": -92.4,
      "nceiStationId": "USW00013983",
      "nceiStationName": "COLUMBIA MUNICIPAL AIRPORT, MO US",
      "nceiLat": 38.96667,
      "nceiLon": -92.36667,
      "distanceKm": 10.06,
      "tmaxDateRange": "1948-01-01 to 2026-02-12",
      "noMatchFound": false
    },
    "173": {
      "id": 173,
      "city": "JOPLIN, MO",
      "zip": "64801",
      "lat": 37.08,
      "lon": -94.5,
      "nceiStationId": "USW00013987",
      "nceiStationName": "JOPLIN REGIONAL AIRPORT, MO US",
      "nceiLat": 37.15222,
      "nceiLon": -94.49524,
      "distanceKm": 8.04,
      "tmaxDateRange": "1948-01-01 to 2026-04-10",
      "noMatchFound": false
    },
    "174": {
      "id": 174,
      "city": "KANSAS CITY, MO",
      "zip": "64124",
      "lat": 39.11,
      "lon": -94.54,
      "nceiStationId": "USW00013988",
      "nceiStationName": "KANSAS CITY DOWNTOWN AIRPORT, MO US",
      "nceiLat": 39.12791,
      "nceiLon": -94.58915,
      "distanceKm": 4.68,
      "tmaxDateRange": "1934-01-01 to 2026-04-10",
      "noMatchFound": false
    },
    "175": {
      "id": 175,
      "city": "SAINT LOUIS, MO",
      "zip": "63108",
      "lat": 38.64,
      "lon": -90.25,
      "nceiStationId": "USW00003960",
      "nceiStationName": "CAHOKIA ST LOUIS DOWNTOWN AIRPORT, IL US",
      "nceiLat": 38.56402,
      "nceiLon": -90.14869,
      "distanceKm": 12.2,
      "tmaxDateRange": "1997-06-08 to 2026-04-10",
      "noMatchFound": false
    },
    "176": {
      "id": 176,
      "city": "SPRINGFIELD, MO",
      "zip": "65806",
      "lat": 37.21,
      "lon": -93.3,
      "nceiStationId": "USW00013995",
      "nceiStationName": "SPRINGFIELD WEATHER SERVICE OFFICE AIRPORT, MO US",
      "nceiLat": 37.23983,
      "nceiLon": -93.38995,
      "distanceKm": 8.63,
      "tmaxDateRange": "1940-08-01 to 2026-04-10",
      "noMatchFound": false
    },
    "177": {
      "id": 177,
      "city": "GREENWOOD, MS",
      "zip": "38930",
      "lat": 33.51,
      "lon": -90.19,
      "nceiStationId": "USW00013978",
      "nceiStationName": "GREENWOOD LEFLORE AIRPORT, MS US",
      "nceiLat": 33.49612,
      "nceiLon": -90.08946,
      "distanceKm": 9.45,
      "tmaxDateRange": "1948-01-01 to 2026-04-10",
      "noMatchFound": false
    },
    "178": {
      "id": 178,
      "city": "JACKSON, MS",
      "zip": "39203",
      "lat": 32.31,
      "lon": -90.2,
      "nceiStationId": "USW00013927",
      "nceiStationName": "JACKSON HAWKINS FIELD, MS US",
      "nceiLat": 32.33756,
      "nceiLon": -90.2214,
      "distanceKm": 3.67,
      "tmaxDateRange": "2000-07-16 to 2026-04-10",
      "noMatchFound": false
    },
    "179": {
      "id": 179,
      "city": "MCCOMB, MS",
      "zip": "39648",
      "lat": 31.24,
      "lon": -90.46,
      "nceiStationId": "USW00093919",
      "nceiStationName": "MCCOMB AIRPORT, MS US",
      "nceiLat": 31.18228,
      "nceiLon": -90.47207,
      "distanceKm": 6.52,
      "tmaxDateRange": "1948-10-01 to 2026-04-01",
      "noMatchFound": false
    },
    "180": {
      "id": 180,
      "city": "MERIDIAN, MS",
      "zip": "39307",
      "lat": 32.34,
      "lon": -88.8,
      "nceiStationId": "USW00013865",
      "nceiStationName": "MERIDIAN KEY FIELD, MS US",
      "nceiLat": 32.33483,
      "nceiLon": -88.75073,
      "distanceKm": 4.66,
      "tmaxDateRange": "1944-06-01 to 2026-04-10",
      "noMatchFound": false
    },
    "181": {
      "id": 181,
      "city": "TUPELO, MS",
      "zip": "38801",
      "lat": 34.26,
      "lon": -88.73,
      "nceiStationId": "USW00093862",
      "nceiStationName": "TUPELO REGIONAL AIRPORT, MS US",
      "nceiLat": 34.26224,
      "nceiLon": -88.77127,
      "distanceKm": 3.8,
      "tmaxDateRange": "1962-11-08 to 2026-04-10",
      "noMatchFound": false
    },
    "182": {
      "id": 182,
      "city": "BILLINGS, MT",
      "zip": "59102",
      "lat": 45.76,
      "lon": -108.57,
      "nceiStationId": "USW00024033",
      "nceiStationName": "BILLINGS INTERNATIONAL AIRPORT, MT US",
      "nceiLat": 45.80721,
      "nceiLon": -108.54618,
      "distanceKm": 5.56,
      "tmaxDateRange": "1948-01-02 to 2026-04-10",
      "noMatchFound": false
    },
    "183": {
      "id": 183,
      "city": "BUTTE, MT",
      "zip": "59701",
      "lat": 46,
      "lon": -112.44,
      "nceiStationId": "USW00024135",
      "nceiStationName": "BUTTE BERT MOONEY AIRPORT, MT US",
      "nceiLat": 45.96436,
      "nceiLon": -112.50147,
      "distanceKm": 6.19,
      "tmaxDateRange": "1894-04-02 to 2026-04-10",
      "noMatchFound": false
    },
    "184": {
      "id": 184,
      "city": "CUT BANK, MT",
      "zip": "59427",
      "lat": 48.65,
      "lon": -112.84,
      "nceiStationId": "USR0000MBRO",
      "nceiStationName": "BROWNING BFA MONTANA, MT US",
      "nceiLat": 48.5617,
      "nceiLon": -113.0133,
      "distanceKm": 16.09,
      "tmaxDateRange": "2003-10-27 to 2023-12-13",
      "noMatchFound": false
    },
    "185": {
      "id": 185,
      "city": "GLASGOW, MT",
      "zip": "59230",
      "lat": 48.1,
      "lon": -106.84,
      "nceiStationId": "USW00094008",
      "nceiStationName": "GLASGOW INTERNATIONAL AIRPORT, MT US",
      "nceiLat": 48.21416,
      "nceiLon": -106.62139,
      "distanceKm": 20.59,
      "tmaxDateRange": "1948-01-01 to 2026-04-10",
      "noMatchFound": false
    },
    "186": {
      "id": 186,
      "city": "GREAT FALLS, MT",
      "zip": "59401",
      "lat": 47.51,
      "lon": -111.27,
      "nceiStationId": "USW00024112",
      "nceiStationName": "MALMSTROM AFB, MT US",
      "nceiLat": 47.51667,
      "nceiLon": -111.18333,
      "distanceKm": 6.55,
      "tmaxDateRange": "1949-01-01 to 2026-04-10",
      "noMatchFound": false
    },
    "187": {
      "id": 187,
      "city": "HAVRE, MT",
      "zip": "59501",
      "lat": 48.56,
      "lon": -109.73,
      "nceiStationId": "USW00094012",
      "nceiStationName": "HAVRE AIRPORT ASOS, MT US",
      "nceiLat": 48.54254,
      "nceiLon": -109.76439,
      "distanceKm": 3.19,
      "tmaxDateRange": "1961-02-01 to 2026-04-10",
      "noMatchFound": false
    },
    "188": {
      "id": 188,
      "city": "HELENA, MT",
      "zip": "59601",
      "lat": 46.53,
      "lon": -112.21,
      "nceiStationId": "USS0012C13S",
      "nceiStationName": "FROHNER MEADOW, MT US",
      "nceiLat": 46.44,
      "nceiLon": -112.19,
      "distanceKm": 10.12,
      "tmaxDateRange": "1988-06-14 to 2026-04-09",
      "noMatchFound": false
    },
    "189": {
      "id": 189,
      "city": "KALISPELL, MT",
      "zip": "59901",
      "lat": 48.19,
      "lon": -114.38,
      "nceiStationId": "USC00244558",
      "nceiStationName": "KALISPELL GLACIER AIRPORT, MT US",
      "nceiLat": 48.30408,
      "nceiLon": -114.26426,
      "distanceKm": 15.31,
      "tmaxDateRange": "1896-06-01 to 2026-04-10",
      "noMatchFound": false
    },
    "190": {
      "id": 190,
      "city": "LEWISTOWN, MT",
      "zip": "59457",
      "lat": 47.01,
      "lon": -109.34,
      "nceiStationId": "USW00024036",
      "nceiStationName": "LEWISTOWN AIRPORT, MT US",
      "nceiLat": 47.05443,
      "nceiLon": -109.45654,
      "distanceKm": 10.12,
      "tmaxDateRange": "1896-01-08 to 2026-04-09",
      "noMatchFound": false
    },
    "191": {
      "id": 191,
      "city": "MILES CITY, MT",
      "zip": "59301",
      "lat": 46.22,
      "lon": -105.6,
      "nceiStationId": "USW00024037",
      "nceiStationName": "MILES CITY AIRPORT, MT US",
      "nceiLat": 46.42647,
      "nceiLon": -105.88333,
      "distanceKm": 31.63,
      "tmaxDateRange": "1937-01-16 to 2026-04-10",
      "noMatchFound": false
    },
    "192": {
      "id": 192,
      "city": "MISSOULA, MT",
      "zip": "59801",
      "lat": 46.85,
      "lon": -113.99,
      "nceiStationId": "USW00024153",
      "nceiStationName": "MISSOULA INTERNATIONAL AIRPORT, MT US",
      "nceiLat": 46.92076,
      "nceiLon": -114.09376,
      "distanceKm": 11.14,
      "tmaxDateRange": "1948-01-01 to 2026-04-10",
      "noMatchFound": false
    },
    "193": {
      "id": 193,
      "city": "ASHEVILLE, NC",
      "zip": "28801",
      "lat": 35.59,
      "lon": -82.56,
      "nceiStationId": "USW00013872",
      "nceiStationName": "ASHEVILLE, NC US",
      "nceiLat": 35.5954,
      "nceiLon": -82.5568,
      "distanceKm": 0.67,
      "tmaxDateRange": "1876-11-01 to 2026-03-10",
      "noMatchFound": false
    },
    "194": {
      "id": 194,
      "city": "CHARLOTTE, NC",
      "zip": "28202",
      "lat": 35.23,
      "lon": -80.84,
      "nceiStationId": "USW00013881",
      "nceiStationName": "CHARLOTTE DOUGLAS AIRPORT, NC US",
      "nceiLat": 35.22254,
      "nceiLon": -80.95433,
      "distanceKm": 10.42,
      "tmaxDateRange": "1939-07-01 to 2026-04-10",
      "noMatchFound": false
    },
    "195": {
      "id": 195,
      "city": "GREENSBORO, NC",
      "zip": "27403",
      "lat": 36.07,
      "lon": -79.82,
      "nceiStationId": "USW00013723",
      "nceiStationName": "GREENSBORO PIEDMONT TRIAD INTERNATIONAL AIRPORT, NC US",
      "nceiLat": 36.0969,
      "nceiLon": -79.94316,
      "distanceKm": 11.46,
      "tmaxDateRange": "1928-11-01 to 2026-04-10",
      "noMatchFound": false
    },
    "196": {
      "id": 196,
      "city": "HATTERAS, NC",
      "zip": "27943",
      "lat": 35.22,
      "lon": -75.68,
      "nceiStationId": "USW00093729",
      "nceiStationName": "CAPE HATTERAS BILLY MITCHELL FIELD, NC US",
      "nceiLat": 35.23238,
      "nceiLon": -75.62223,
      "distanceKm": 5.42,
      "tmaxDateRange": "1957-03-01 to 2026-04-09",
      "noMatchFound": false
    },
    "197": {
      "id": 197,
      "city": "HICKORY, NC",
      "zip": "28601",
      "lat": 35.77,
      "lon": -81.33,
      "nceiStationId": "USW00003810",
      "nceiStationName": "HICKORY FAA AIRPORT, NC US",
      "nceiLat": 35.74205,
      "nceiLon": -81.38225,
      "distanceKm": 5.65,
      "tmaxDateRange": "1949-01-01 to 2026-04-10",
      "noMatchFound": false
    },
    "198": {
      "id": 198,
      "city": "NEW BERN, NC",
      "zip": "28560",
      "lat": 35.11,
      "lon": -77.07,
      "nceiStationId": "USW00093719",
      "nceiStationName": "NEW BERN COASTAL CAROLINA REGIONAL AIRPORT, NC US",
      "nceiLat": 35.06836,
      "nceiLon": -77.04783,
      "distanceKm": 5.05,
      "tmaxDateRange": "1948-09-01 to 2026-04-09",
      "noMatchFound": false
    },
    "199": {
      "id": 199,
      "city": "RALEIGH, NC",
      "zip": "27601",
      "lat": 35.77,
      "lon": -78.63,
      "nceiStationId": "USC00317079",
      "nceiStationName": "RALEIGH STATE UNIVERSITY, NC US",
      "nceiLat": 35.79082,
      "nceiLon": -78.69875,
      "distanceKm": 6.62,
      "tmaxDateRange": "1892-01-01 to 2026-01-31",
      "noMatchFound": false
    },
    "200": {
      "id": 200,
      "city": "WILMINGTON, NC",
      "zip": "28403",
      "lat": 34.21,
      "lon": -77.91,
      "nceiStationId": "USW00013748",
      "nceiStationName": "WILMINGTON INTERNATIONAL AIRPORT, NC US",
      "nceiLat": 34.26678,
      "nceiLon": -77.89987,
      "distanceKm": 6.38,
      "tmaxDateRange": "1948-01-01 to 2026-04-10",
      "noMatchFound": false
    },
    "201": {
      "id": 201,
      "city": "BISMARCK, ND",
      "zip": "58501",
      "lat": 46.82,
      "lon": -100.7,
      "nceiStationId": "USW00024011",
      "nceiStationName": "BISMARCK MUNICIPAL AIRPORT, ND US",
      "nceiLat": 46.78232,
      "nceiLon": -100.75752,
      "distanceKm": 6.06,
      "tmaxDateRange": "1948-01-01 to 2026-04-10",
      "noMatchFound": false
    },
    "202": {
      "id": 202,
      "city": "DEVILS LAKE, ND",
      "zip": "58301",
      "lat": 48.11,
      "lon": -98.87,
      "nceiStationId": "USC00322148",
      "nceiStationName": "DEVILS LAKE MUNICIPAL AIRPORT, ND US",
      "nceiLat": 48.11667,
      "nceiLon": -98.9,
      "distanceKm": 2.35,
      "tmaxDateRange": "2021-12-01 to 2026-04-10",
      "noMatchFound": false
    },
    "203": {
      "id": 203,
      "city": "DICKINSON, ND",
      "zip": "58601",
      "lat": 46.88,
      "lon": -102.78,
      "nceiStationId": "USW00024012",
      "nceiStationName": "DICKINSON THEODORE ROOSEVELT REGIONAL AIRPORT, ND US",
      "nceiLat": 46.79968,
      "nceiLon": -102.79715,
      "distanceKm": 9.03,
      "tmaxDateRange": "1948-07-02 to 2026-04-10",
      "noMatchFound": false
    },
    "204": {
      "id": 204,
      "city": "FARGO, ND",
      "zip": "58103",
      "lat": 46.87,
      "lon": -96.81,
      "nceiStationId": "USW00014914",
      "nceiStationName": "FARGO HECTOR INTERNATIONAL AIRPORT, ND US",
      "nceiLat": 46.92424,
      "nceiLon": -96.81186,
      "distanceKm": 6.03,
      "tmaxDateRange": "1891-05-27 to 2026-04-10",
      "noMatchFound": false
    },
    "205": {
      "id": 205,
      "city": "GRAND FORKS, ND",
      "zip": "58201",
      "lat": 47.91,
      "lon": -97.07,
      "nceiStationId": "USW00014916",
      "nceiStationName": "GRAND FORKS INTERNATIONAL AIRPORT, ND US",
      "nceiLat": 47.94281,
      "nceiLon": -97.18294,
      "distanceKm": 9.17,
      "tmaxDateRange": "1941-04-01 to 2026-04-10",
      "noMatchFound": false
    },
    "206": {
      "id": 206,
      "city": "JAMESTOWN, ND",
      "zip": "58401",
      "lat": 46.91,
      "lon": -98.69,
      "nceiStationId": "USW00014919",
      "nceiStationName": "JAMESTOWN MUNICIPAL AIRPORT, ND US",
      "nceiLat": 46.92586,
      "nceiLon": -98.67037,
      "distanceKm": 2.31,
      "tmaxDateRange": "1948-07-01 to 2026-04-10",
      "noMatchFound": false
    },
    "207": {
      "id": 207,
      "city": "MINOT, ND",
      "zip": "58704",
      "lat": 48.42,
      "lon": -101.32,
      "nceiStationId": "USW00094011",
      "nceiStationName": "MINOT AFB, ND US",
      "nceiLat": 48.41667,
      "nceiLon": -101.35,
      "distanceKm": 2.24,
      "tmaxDateRange": "1959-10-01 to 2026-04-04",
      "noMatchFound": false
    },
    "208": {
      "id": 208,
      "city": "WILLISTON, ND",
      "zip": "58801",
      "lat": 48.16,
      "lon": -103.63,
      "nceiStationId": "USC00329430",
      "nceiStationName": "WILLISTON EXPERIMENTAL FARM, ND US",
      "nceiLat": 48.1375,
      "nceiLon": -103.7372,
      "distanceKm": 8.34,
      "tmaxDateRange": "1956-07-15 to 2026-01-31",
      "noMatchFound": false
    },
    "209": {
      "id": 209,
      "city": "GRAND ISLAND, NE",
      "zip": "68801",
      "lat": 40.95,
      "lon": -98.29,
      "nceiStationId": "USW00014935",
      "nceiStationName": "GRAND ISLAND CENTRAL NE REGIONAL AIRPORT, NE US",
      "nceiLat": 40.96146,
      "nceiLon": -98.31304,
      "distanceKm": 2.32,
      "tmaxDateRange": "1938-03-21 to 2026-04-10",
      "noMatchFound": false
    },
    "210": {
      "id": 210,
      "city": "LINCOLN, NE",
      "zip": "68503",
      "lat": 40.82,
      "lon": -96.67,
      "nceiStationId": "USW00014939",
      "nceiStationName": "LINCOLN AIRPORT, NE US",
      "nceiLat": 40.84781,
      "nceiLon": -96.76467,
      "distanceKm": 8.54,
      "tmaxDateRange": "1948-01-01 to 2026-04-10",
      "noMatchFound": false
    },
    "211": {
      "id": 211,
      "city": "NORFOLK, NE",
      "zip": "68701",
      "lat": 42.03,
      "lon": -97.41,
      "nceiStationId": "USW00014941",
      "nceiStationName": "NORFOLK KARL STEFAN MEMORIAL AIRPORT, NE US",
      "nceiLat": 41.97988,
      "nceiLon": -97.4335,
      "distanceKm": 5.9,
      "tmaxDateRange": "1945-10-01 to 2026-04-10",
      "noMatchFound": false
    },
    "212": {
      "id": 212,
      "city": "NORTH PLATTE, NE",
      "zip": "69101",
      "lat": 41.13,
      "lon": -100.77,
      "nceiStationId": "USW00024023",
      "nceiStationName": "NORTH PLATTE REGIONAL AIRPORT, NE US",
      "nceiLat": 41.12199,
      "nceiLon": -100.66895,
      "distanceKm": 8.51,
      "tmaxDateRange": "1948-01-01 to 2026-04-10",
      "noMatchFound": false
    },
    "213": {
      "id": 213,
      "city": "OMAHA, NE",
      "zip": "68105",
      "lat": 41.24,
      "lon": -95.96,
      "nceiStationId": "USW00014942",
      "nceiStationName": "OMAHA EPPLEY AIRFIELD, NE US",
      "nceiLat": 41.31186,
      "nceiLon": -95.90186,
      "distanceKm": 9.35,
      "tmaxDateRange": "1948-01-01 to 2026-04-10",
      "noMatchFound": false
    },
    "214": {
      "id": 214,
      "city": "SCOTTSBLUFF, NE",
      "zip": "69361",
      "lat": 41.86,
      "lon": -103.66,
      "nceiStationId": "USW00024028",
      "nceiStationName": "SCOTTSBLUFF W B HEILIG FIELD AIRPORT, NE US",
      "nceiLat": 41.87466,
      "nceiLon": -103.60112,
      "distanceKm": 5.14,
      "tmaxDateRange": "1893-01-01 to 2026-04-09",
      "noMatchFound": false
    },
    "215": {
      "id": 215,
      "city": "VALENTINE, NE",
      "zip": "69201",
      "lat": 42.87,
      "lon": -100.55,
      "nceiStationId": "USW00024032",
      "nceiStationName": "VALENTINE MILLER FIELD AIRPORT, NE US",
      "nceiLat": 42.85855,
      "nceiLon": -100.55141,
      "distanceKm": 1.28,
      "tmaxDateRange": "1948-01-01 to 2026-04-10",
      "noMatchFound": false
    },
    "216": {
      "id": 216,
      "city": "CONCORD, NH",
      "zip": "03301",
      "lat": 43.23,
      "lon": -71.56,
      "nceiStationId": "USW00014745",
      "nceiStationName": "CONCORD MUNICIPAL AIRPORT, NH US",
      "nceiLat": 43.20488,
      "nceiLon": -71.50257,
      "distanceKm": 5.43,
      "tmaxDateRange": "1939-04-01 to 2026-04-10",
      "noMatchFound": false
    },
    "217": {
      "id": 217,
      "city": "LEBANON, NH",
      "zip": "03784",
      "lat": 43.64,
      "lon": -72.31,
      "nceiStationId": "USW00094765",
      "nceiStationName": "LEBANON MUNICIPAL AIRPORT, NH US",
      "nceiLat": 43.62707,
      "nceiLon": -72.30537,
      "distanceKm": 1.49,
      "tmaxDateRange": "1962-09-01 to 2026-04-10",
      "noMatchFound": false
    },
    "218": {
      "id": 218,
      "city": "MOUNT WASHINGTON, NH",
      "zip": "03589",
      "lat": 44.27,
      "lon": -71.3,
      "nceiStationId": "USW00014755",
      "nceiStationName": "MOUNT WASHINGTON, NH US",
      "nceiLat": 44.27018,
      "nceiLon": -71.30336,
      "distanceKm": 0.27,
      "tmaxDateRange": "1948-01-01 to 2026-04-11",
      "noMatchFound": false
    },
    "219": {
      "id": 219,
      "city": "ATLANTIC CITY, NJ",
      "zip": "08401",
      "lat": 39.36,
      "lon": -74.42,
      "nceiStationId": "USW00013724",
      "nceiStationName": "ATLANTIC CITY MARINA, NJ US",
      "nceiLat": 39.37778,
      "nceiLon": -74.42361,
      "distanceKm": 2,
      "tmaxDateRange": "1873-12-10 to 2026-04-10",
      "noMatchFound": false
    },
    "220": {
      "id": 220,
      "city": "NEWARK, NJ",
      "zip": "07107",
      "lat": 40.76,
      "lon": -74.19,
      "nceiStationId": "USW00014734",
      "nceiStationName": "NEWARK LIBERTY INTERNATIONAL AIRPORT, NJ US",
      "nceiLat": 40.68275,
      "nceiLon": -74.16927,
      "distanceKm": 8.77,
      "tmaxDateRange": "1843-05-01 to 2026-04-10",
      "noMatchFound": false
    },
    "221": {
      "id": 221,
      "city": "ALBUQUERQUE, NM",
      "zip": "87108",
      "lat": 35.07,
      "lon": -106.58,
      "nceiStationId": "USW00023050",
      "nceiStationName": "ALBUQUERQUE INTERNATIONAL AIRPORT, NM US",
      "nceiLat": 35.04189,
      "nceiLon": -106.61545,
      "distanceKm": 4.49,
      "tmaxDateRange": "1931-03-01 to 2026-04-10",
      "noMatchFound": false
    },
    "222": {
      "id": 222,
      "city": "CARLSBAD, NM",
      "zip": "88220",
      "lat": 32.4,
      "lon": -104.23,
      "nceiStationId": "USW00093033",
      "nceiStationName": "CAVERN CITY AIRPORT, NM US",
      "nceiLat": 32.33355,
      "nceiLon": -104.25846,
      "distanceKm": 7.86,
      "tmaxDateRange": "1930-01-15 to 2026-04-10",
      "noMatchFound": false
    },
    "223": {
      "id": 223,
      "city": "CLAYTON, NM",
      "zip": "88415",
      "lat": 36.45,
      "lon": -103.17,
      "nceiStationId": "USW00023051",
      "nceiStationName": "CLAYTON MUNICIPAL AIR PARK, NM US",
      "nceiLat": 36.44834,
      "nceiLon": -103.15366,
      "distanceKm": 1.47,
      "tmaxDateRange": "1896-02-01 to 2026-04-10",
      "noMatchFound": false
    },
    "224": {
      "id": 224,
      "city": "CLOVIS, NM",
      "zip": "88101",
      "lat": 34.41,
      "lon": -103.2,
      "nceiStationId": "USW00023077",
      "nceiStationName": "CLOVIS MUNICIPAL AIRPORT, NM US",
      "nceiLat": 34.43333,
      "nceiLon": -103.08333,
      "distanceKm": 11.01,
      "tmaxDateRange": "2017-07-05 to 2026-04-09",
      "noMatchFound": false
    },
    "225": {
      "id": 225,
      "city": "GALLUP, NM",
      "zip": "87301",
      "lat": 35.52,
      "lon": -108.73,
      "nceiStationId": "USW00023081",
      "nceiStationName": "GALLUP MUNICIPAL AIRPORT, NM US",
      "nceiLat": 35.50857,
      "nceiLon": -108.79319,
      "distanceKm": 5.86,
      "tmaxDateRange": "1973-01-08 to 2026-04-10",
      "noMatchFound": false
    },
    "226": {
      "id": 226,
      "city": "ROSWELL, NM",
      "zip": "88203",
      "lat": 33.33,
      "lon": -104.52,
      "nceiStationId": "USW00023009",
      "nceiStationName": "ROSWELL INDUSTRIAL AIR PARK, NM US",
      "nceiLat": 33.30735,
      "nceiLon": -104.50817,
      "distanceKm": 2.75,
      "tmaxDateRange": "1946-12-01 to 2026-04-10",
      "noMatchFound": false
    },
    "227": {
      "id": 227,
      "city": "ELKO, NV",
      "zip": "89801",
      "lat": 40.95,
      "lon": -115.79,
      "nceiStationId": "USW00024121",
      "nceiStationName": "ELKO REGIONAL AIRPORT, NV US",
      "nceiLat": 40.82402,
      "nceiLon": -115.78635,
      "distanceKm": 14.01,
      "tmaxDateRange": "1888-02-01 to 2026-04-10",
      "noMatchFound": false
    },
    "228": {
      "id": 228,
      "city": "ELY, NV",
      "zip": "89301",
      "lat": 39.42,
      "lon": -115,
      "nceiStationId": "USW00023154",
      "nceiStationName": "ELY AIRPORT, NV US",
      "nceiLat": 39.29537,
      "nceiLon": -114.84666,
      "distanceKm": 19.13,
      "tmaxDateRange": "1893-01-01 to 2026-04-10",
      "noMatchFound": false
    },
    "229": {
      "id": 229,
      "city": "LAS VEGAS, NV",
      "zip": "89101",
      "lat": 36.17,
      "lon": -115.12,
      "nceiStationId": "USW00053123",
      "nceiStationName": "LAS VEGAS AIR TERMINAL, NV US",
      "nceiLat": 36.21205,
      "nceiLon": -115.19394,
      "distanceKm": 8.12,
      "tmaxDateRange": "2000-10-01 to 2026-04-10",
      "noMatchFound": false
    },
    "230": {
      "id": 230,
      "city": "LOVELOCK, NV",
      "zip": "89419",
      "lat": 40.32,
      "lon": -118.2,
      "nceiStationId": "USC00267192",
      "nceiStationName": "RYE PATCH DAM, NV US",
      "nceiLat": 40.4661,
      "nceiLon": -118.3047,
      "distanceKm": 18.51,
      "tmaxDateRange": "1935-05-15 to 2026-04-10",
      "noMatchFound": false
    },
    "231": {
      "id": 231,
      "city": "RENO, NV",
      "zip": "89501",
      "lat": 39.52,
      "lon": -119.81,
      "nceiStationId": "USW00023185",
      "nceiStationName": "RENO AIRPORT, NV US",
      "nceiLat": 39.50769,
      "nceiLon": -119.76829,
      "distanceKm": 3.83,
      "tmaxDateRange": "1937-03-01 to 2026-04-10",
      "noMatchFound": false
    },
    "232": {
      "id": 232,
      "city": "TONOPAH, NV",
      "zip": "89049",
      "lat": 38.36,
      "lon": -116.26,
      "nceiStationId": "USR0000NPAN",
      "nceiStationName": "PANCAKE NEVADA, NV US",
      "nceiLat": 38.3036,
      "nceiLon": -116.1925,
      "distanceKm": 8.6,
      "tmaxDateRange": "1986-09-18 to 2026-04-03",
      "noMatchFound": false
    },
    "233": {
      "id": 233,
      "city": "WINNEMUCCA, NV",
      "zip": "89445",
      "lat": 41.12,
      "lon": -118.05,
      "nceiStationId": "USW00024128",
      "nceiStationName": "WINNEMUCCA AIRPORT, NV US",
      "nceiLat": 40.90178,
      "nceiLon": -117.80812,
      "distanceKm": 31.63,
      "tmaxDateRange": "1877-07-01 to 2026-04-10",
      "noMatchFound": false
    },
    "234": {
      "id": 234,
      "city": "ALBANY, NY",
      "zip": "12210",
      "lat": 42.66,
      "lon": -73.76,
      "nceiStationId": "USW00014735",
      "nceiStationName": "ALBANY INTERNATIONAL AIRPORT, NY US",
      "nceiLat": 42.74722,
      "nceiLon": -73.79913,
      "distanceKm": 10.21,
      "tmaxDateRange": "1938-06-01 to 2026-04-10",
      "noMatchFound": false
    },
    "235": {
      "id": 235,
      "city": "BINGHAMTON, NY",
      "zip": "13905",
      "lat": 42.17,
      "lon": -75.94,
      "nceiStationId": "USW00004725",
      "nceiStationName": "BINGHAMTON GREATER AP, NY US",
      "nceiLat": 42.20678,
      "nceiLon": -75.97993,
      "distanceKm": 5.25,
      "tmaxDateRange": "1951-05-25 to 2026-04-10",
      "noMatchFound": false
    },
    "236": {
      "id": 236,
      "city": "BUFFALO, NY",
      "zip": "14201",
      "lat": 42.9,
      "lon": -78.89,
      "nceiStationId": "USW00014733",
      "nceiStationName": "BUFFALO NIAGARA INTERNATIONAL AIRPOR, NY US",
      "nceiLat": 42.93998,
      "nceiLon": -78.73606,
      "distanceKm": 13.3,
      "tmaxDateRange": "1938-05-01 to 2026-04-10",
      "noMatchFound": false
    },
    "237": {
      "id": 237,
      "city": "GLENS FALLS, NY",
      "zip": "12801",
      "lat": 43.31,
      "lon": -73.64,
      "nceiStationId": "USW00014750",
      "nceiStationName": "GLENS FALLS FLOYD BENNETT MEMORIAL AIRPORT, NY US",
      "nceiLat": 43.33849,
      "nceiLon": -73.61024,
      "distanceKm": 3.98,
      "tmaxDateRange": "1944-05-01 to 2026-04-10",
      "noMatchFound": false
    },
    "238": {
      "id": 238,
      "city": "MASSENA, NY",
      "zip": "13662",
      "lat": 44.92,
      "lon": -74.89,
      "nceiStationId": "USW00094725",
      "nceiStationName": "MASSENA INTERNATIONAL AIRPORT, NY US",
      "nceiLat": 44.93341,
      "nceiLon": -74.84836,
      "distanceKm": 3.6,
      "tmaxDateRange": "1948-09-01 to 2026-04-10",
      "noMatchFound": false
    },
    "239": {
      "id": 239,
      "city": "NEW YORK, NY",
      "zip": "10028",
      "lat": 40.78,
      "lon": -73.95,
      "nceiStationId": "USW00094728",
      "nceiStationName": "NY CITY CENTRAL PARK, NY US",
      "nceiLat": 40.77898,
      "nceiLon": -73.96925,
      "distanceKm": 1.62,
      "tmaxDateRange": "1869-01-01 to 2026-04-10",
      "noMatchFound": false
    },
    "240": {
      "id": 240,
      "city": "ROCHESTER, NY",
      "zip": "14619",
      "lat": 43.14,
      "lon": -77.65,
      "nceiStationId": "USW00014768",
      "nceiStationName": "FREDERICK DOUGLASS GREATER ROCHESTER INTERNATIONAL AIRPORT, NY US",
      "nceiLat": 43.11723,
      "nceiLon": -77.67539,
      "distanceKm": 3.26,
      "tmaxDateRange": "1926-01-02 to 2026-04-10",
      "noMatchFound": false
    },
    "241": {
      "id": 241,
      "city": "SYRACUSE, NY",
      "zip": "13203",
      "lat": 43.06,
      "lon": -76.13,
      "nceiStationId": "USW00014771",
      "nceiStationName": "SYRACUSE HANCOCK INTERNATIONAL AIRPORT, NY US",
      "nceiLat": 43.1111,
      "nceiLon": -76.10384,
      "distanceKm": 6.07,
      "tmaxDateRange": "1938-05-01 to 2026-04-10",
      "noMatchFound": false
    },
    "242": {
      "id": 242,
      "city": "UTICA, NY",
      "zip": "13501",
      "lat": 43.1,
      "lon": -75.23,
      "nceiStationId": "USW00064775",
      "nceiStationName": "ROME GRIFFISS AIRFIELD, NY US",
      "nceiLat": 43.22417,
      "nceiLon": -75.39563,
      "distanceKm": 19.26,
      "tmaxDateRange": "2007-05-28 to 2026-04-04",
      "noMatchFound": false
    },
    "243": {
      "id": 243,
      "city": "WATERTOWN, NY",
      "zip": "13601",
      "lat": 43.97,
      "lon": -75.91,
      "nceiStationId": "USW00094790",
      "nceiStationName": "WATERTOWN INTERNATIONAL AIRPORT, NY US",
      "nceiLat": 43.98872,
      "nceiLon": -76.02609,
      "distanceKm": 9.52,
      "tmaxDateRange": "1949-05-04 to 2026-04-10",
      "noMatchFound": false
    },
    "244": {
      "id": 244,
      "city": "AKRON, OH",
      "zip": "44302",
      "lat": 41.09,
      "lon": -81.54,
      "nceiStationId": "USW00014813",
      "nceiStationName": "AKRON FULTON INTERNATIONAL AIRPORT, OH US",
      "nceiLat": 41.03732,
      "nceiLon": -81.46341,
      "distanceKm": 8.69,
      "tmaxDateRange": "1948-01-01 to 2026-04-10",
      "noMatchFound": false
    },
    "245": {
      "id": 245,
      "city": "CINCINNATI, OH",
      "zip": "45219",
      "lat": 39.13,
      "lon": -84.51,
      "nceiStationId": "USW00093812",
      "nceiStationName": "CINCINNATI MUNICIPAL AIRPORT LUNKEN FIELD, OH US",
      "nceiLat": 39.106,
      "nceiLon": -84.41609,
      "distanceKm": 8.53,
      "tmaxDateRange": "1949-04-01 to 2026-04-10",
      "noMatchFound": false
    },
    "246": {
      "id": 246,
      "city": "CLEVELAND, OH",
      "zip": "44102",
      "lat": 41.48,
      "lon": -81.74,
      "nceiStationId": "USW00004853",
      "nceiStationName": "CLEVELAND BURKE LAKEFRONT AIRPORT, OH US",
      "nceiLat": 41.52568,
      "nceiLon": -81.66908,
      "distanceKm": 7.79,
      "tmaxDateRange": "1998-02-12 to 2026-04-10",
      "noMatchFound": false
    },
    "247": {
      "id": 247,
      "city": "COLUMBUS, OH",
      "zip": "43201",
      "lat": 39.98,
      "lon": -82.98,
      "nceiStationId": "USW00014821",
      "nceiStationName": "JOHN GLENN INTERNATIONAL AIRPORT, OH US",
      "nceiLat": 39.99068,
      "nceiLon": -82.87703,
      "distanceKm": 8.85,
      "tmaxDateRange": "1948-01-01 to 2026-04-10",
      "noMatchFound": false
    },
    "248": {
      "id": 248,
      "city": "DAYTON, OH",
      "zip": "45410",
      "lat": 39.75,
      "lon": -84.16,
      "nceiStationId": "USW00013840",
      "nceiStationName": "DAYTON WRIGHT PATTERSON AFB, OH US",
      "nceiLat": 39.83333,
      "nceiLon": -84.05,
      "distanceKm": 13.2,
      "tmaxDateRange": "1946-10-01 to 2026-04-04",
      "noMatchFound": false
    },
    "249": {
      "id": 249,
      "city": "FINDLAY, OH",
      "zip": "45840",
      "lat": 41.04,
      "lon": -83.64,
      "nceiStationId": "USW00014825",
      "nceiStationName": "FINDLAY AIRPORT, OH US",
      "nceiLat": 41.01369,
      "nceiLon": -83.66814,
      "distanceKm": 3.76,
      "tmaxDateRange": "1942-01-01 to 2026-04-10",
      "noMatchFound": false
    },
    "250": {
      "id": 250,
      "city": "LANCASTER, OH",
      "zip": "43130",
      "lat": 39.72,
      "lon": -82.59,
      "nceiStationId": "USW00053844",
      "nceiStationName": "LANCASTER FAIRFIELD CO AIRPORT, OH US",
      "nceiLat": 39.75725,
      "nceiLon": -82.66333,
      "distanceKm": 7.51,
      "tmaxDateRange": "1996-07-01 to 2026-04-10",
      "noMatchFound": false
    },
    "251": {
      "id": 251,
      "city": "MANSFIELD, OH",
      "zip": "44902",
      "lat": 40.76,
      "lon": -82.52,
      "nceiStationId": "USW00014891",
      "nceiStationName": "MANSFIELD LAHM REGIONAL AIRPORT, OH US",
      "nceiLat": 40.8204,
      "nceiLon": -82.51769,
      "distanceKm": 6.72,
      "tmaxDateRange": "1948-12-01 to 2026-04-10",
      "noMatchFound": false
    },
    "252": {
      "id": 252,
      "city": "TOLEDO, OH",
      "zip": "43620",
      "lat": 41.67,
      "lon": -83.55,
      "nceiStationId": "USW00004848",
      "nceiStationName": "TOLEDO EXECUTIVE AIRPORT, OH US",
      "nceiLat": 41.56327,
      "nceiLon": -83.47671,
      "distanceKm": 13.34,
      "tmaxDateRange": "1998-01-01 to 2026-04-04",
      "noMatchFound": false
    },
    "253": {
      "id": 253,
      "city": "YOUNGSTOWN, OH",
      "zip": "44504",
      "lat": 41.12,
      "lon": -80.65,
      "nceiStationId": "USW00014852",
      "nceiStationName": "YOUNGSTOWN WARREN REGIONAL AIRPORT, OH US",
      "nceiLat": 41.25478,
      "nceiLon": -80.67361,
      "distanceKm": 15.12,
      "tmaxDateRange": "1934-08-02 to 2026-04-10",
      "noMatchFound": false
    },
    "254": {
      "id": 254,
      "city": "GAGE, OK",
      "zip": "73843",
      "lat": 36.31,
      "lon": -99.75,
      "nceiStationId": "USW00013975",
      "nceiStationName": "GAGE AIRPORT, OK US",
      "nceiLat": 36.29659,
      "nceiLon": -99.76865,
      "distanceKm": 2.24,
      "tmaxDateRange": "1904-05-01 to 2026-04-10",
      "noMatchFound": false
    },
    "255": {
      "id": 255,
      "city": "HOBART, OK",
      "zip": "73651",
      "lat": 35.02,
      "lon": -99.09,
      "nceiStationId": "USW00093986",
      "nceiStationName": "HOBART MUNICIPAL AIRPORT, OK US",
      "nceiLat": 34.98908,
      "nceiLon": -99.05282,
      "distanceKm": 4.83,
      "tmaxDateRange": "1910-01-01 to 2026-04-10",
      "noMatchFound": false
    },